t_s,ax_raw_g,ay_raw_g,az_raw_g,gx_raw_dps,gy_raw_dps,gz_raw_dps,ax_g,ay_g,az_g,gx_dps,gy_dps,gz_dps,mpu_temp_c,roll_deg,pitch_deg,bx_uT,by_uT,bz_uT,mag_uT,bx_cal_uT,by_cal_uT,bz_cal_uT,mag_cal_uT,yaw_flat_deg,yaw_tilt_deg,mahony_roll_deg,mahony_pitch_deg,mahony_yaw_deg,bmp_temp_c,pressure_pa,altitude_m,imu_dt_us,mag_dt_us,bmp_dt_us,imu_mag_dt_us,imu_bmp_dt_us
1.257,0.010742,0.008789,0.952393,2.244275,-0.045802,0.335878,0.026303,-0.009091,0.986817,0.683757,0.657776,-0.174141,41.521,-0.528,-1.527,33.3027,-11.1927,29.8165,46.0801,37.4697,-10.0125,35.7607,52.7547,14.961,14.857,-0.528,-1.527,14.857,24.920,100665.45,-140.717,1965,3578,4836,1613,2871
1.377,-0.007324,0.003418,0.980957,2.167939,0.000000,0.366412,0.008135,-0.014569,1.015118,0.607744,0.703983,-0.143780,41.527,-0.462,-1.423,33.2110,-11.1009,29.8165,45.9916,37.3616,-9.9072,35.7584,52.6564,14.851,14.778,-0.483,-1.316,14.833,24.920,100666.05,-140.764,1958,3568,4874,1610,2916
1.497,-0.001709,0.002441,0.969482,2.259542,-0.061069,0.351145,0.013703,-0.015458,1.003726,0.697894,0.641091,-0.158266,41.501,-0.388,-1.334,33.3027,-11.1009,29.8165,46.0579,37.4703,-9.9066,35.7612,52.7354,14.809,14.781,-0.439,-1.177,14.805,24.920,100666.48,-140.801,1970,3572,4883,1602,2913
1.617,-0.014893,0.004150,0.973389,2.274809,0.015267,0.320611,0.000573,-0.013459,1.007671,0.713161,0.717427,-0.188800,41.501,-0.312,-1.224,33.3945,-11.1009,29.7248,46.0650,37.5762,-9.9065,35.6529,52.7375,14.769,14.782,-0.383,-0.956,14.773,24.920,100666.48,-140.801,1965,3574,4880,1609,2915
1.737,-0.000244,0.001709,0.970703,2.213740,-0.106870,0.320611,0.015149,-0.016258,1.004920,0.654192,0.597923,-0.189929,41.539,-0.248,-1.146,33.3027,-11.1009,29.8165,46.0579,37.4703,-9.9066,35.7612,52.7354,14.809,14.863,-0.365,-0.875,14.746,24.920,100666.31,-140.786,1974,3576,4878,1602,2904
1.857,0.000488,-0.016846,0.984375,2.305344,-0.030534,0.351145,0.015383,-0.035136,1.018267,0.744180,0.672233,-0.158526,41.509,-0.195,-1.062,33.3027,-11.1009,29.8165,46.0579,37.4703,-9.9066,35.7612,52.7354,14.809,14.890,-0.465,-0.794,14.726,24.920,100665.98,-140.759,1961,3565,4878,1604,2917
1.977,-0.001465,0.007324,0.960205,2.442748,-0.335878,0.290076,0.014068,-0.010379,0.994591,0.880939,0.366079,-0.219248,41.498,-0.099,-1.014,33.3945,-11.1009,29.7248,46.0650,37.5762,-9.9065,35.6529,52.7375,14.769,14.923,-0.365,-0.755,14.687,24.920,100665.81,-140.743,1969,3575,4880,1606,2911
2.097,-0.002197,-0.001709,0.973389,2.259542,0.091603,0.335878,0.013104,-0.019680,1.007554,0.698863,0.794978,-0.174054,41.518,-0.037,-0.915,33.2110,-11.1927,29.8165,46.0138,37.3610,-10.0131,35.7579,52.6757,15.003,15.193,-0.381,-0.656,14.678,24.920,100665.31,-140.701,1965,3569,4874,1604,2909
2.217,-0.028809,0.000488,0.977051,2.351145,-0.137405,0.274809,-0.013441,-0.016806,1.011324,0.789820,0.565160,-0.234776,41.506,0.037,-0.815,33.3945,-11.2844,29.8165,46.1688,37.5779,-10.1178,35.7630,52.8532,15.069,15.302,-0.366,-0.415,14.663,24.920,100665.75,-140.738,1968,3570,4881,1602,2913
2.337,-0.002686,0.003174,0.978516,2.259542,-0.061069,0.335878,0.012763,-0.014892,1.012678,0.698379,0.641698,-0.173793,41.509,0.102,-0.737,33.3945,-11.2844,29.8165,46.1688,37.5779,-10.1178,35.7630,52.8532,15.069,15.340,-0.350,-0.372,14.654,24.920,100666.08,-140.764,1963,3571,4878,1608,2915
2.457,-0.005371,-0.000488,0.971924,2.244275,-0.091603,0.351145,0.009962,-0.018337,1.006131,0.683434,0.611569,-0.158700,41.515,0.159,-0.662,33.3027,-11.2844,29.8165,46.1024,37.4692,-10.1184,35.7602,52.7742,15.112,15.417,-0.365,-0.319,14.650,24.920,100666.41,-140.796,1972,3574,4876,1602,2904
2.577,-0.003418,-0.003906,0.965820,2.244275,0.015267,0.366412,0.011808,-0.021680,1.000049,0.684241,0.719453,-0.143867,41.530,0.212,-0.578,33.2110,-11.1927,29.8165,46.0138,37.3610,-10.0131,35.7579,52.6757,15.003,15.334,-0.394,-0.274,14.640,24.920,100666.41,-140.796,1961,3565,4878,1604,2917
2.697,-0.000244,0.002441,0.969238,2.244275,-0.091603,0.366412,0.015167,-0.015494,1.003478,0.684080,0.612380,-0.143780,41.527,0.270,-0.512,33.3945,-11.1927,29.7248,46.0872,37.5757,-10.0124,35.6524,52.7568,14.920,15.283,-0.370,-0.272,14.622,24.920,100666.16,-140.775,1969,3575,4880,1606,2911
2.817,-0.007812,-0.003906,0.958740,2.290076,0.045802,0.351145,0.007400,-0.021402,0.993062,0.729559,0.749379,-0.158873,41.521,0.326,-0.422,33.3945,-11.1009,29.7248,46.0650,37.5762,-9.9065,35.6529,52.7375,14.769,15.159,-0.379,-0.202,14.595,24.920,100666.31,-140.786,1965,3569,4874,1604,2909
2.937,0.006348,0.006836,0.964600,2.290076,-0.061069,0.351145,0.021875,-0.011184,0.998899,0.729720,0.642711,-0.158960,41.524,0.392,-0.363,33.3945,-11.1927,29.7248,46.0872,37.5757,-10.0124,35.6524,52.7568,14.920,15.355,-0.325,-0.251,14.578,24.920,100665.89,-140.754,1968,3570,4881,1602,2913
3.057,-0.012695,0.002686,0.981689,2.152672,-0.015267,0.305344,0.002744,-0.015166,1.015861,0.591509,0.687500,-0.204328,41.509,0.437,-0.278,33.3027,-11.1009,29.8165,46.0579,37.4703,-9.9066,35.7612,52.7354,14.809,15.265,-0.318,-0.157,14.553,24.920,100665.55,-140.722,1963,3571,4878,1608,2915
3.177,0.003662,0.000000,0.953369,2.274809,0.030534,0.427481,0.018976,-0.017704,0.987731,0.713484,0.733099,-0.082104,41.506,0.492,-0.208,33.3027,-11.1927,29.8165,46.0801,37.4697,-10.0125,35.7607,52.7547,14.961,15.448,-0.326,-0.180,14.553,24.920,100665.72,-140.738,1972,3574,4876,1602,2904
3.297,-0.014893,0.003174,0.974854,2.167939,0.000000,0.366412,0.000548,-0.014467,1.009111,0.607260,0.703375,-0.143519,41.518,0.537,-0.122,33.3027,-11.1927,29.8165,46.0801,37.4697,-10.0125,35.7607,52.7547,14.961,15.467,-0.322,-0.075,14.546,24.920,100666.22,-140.780,1961,3565,4878,1604,2917
3.417,-0.004150,-0.003418,0.963135,2.351145,-0.061069,0.335878,0.011084,-0.021113,0.997399,0.789336,0.640888,-0.173447,41.498,0.595,-0.057,33.3027,-11.1009,29.6330,45.9393,37.4647,-9.9076,35.5391,52.5813,14.813,15.352,-0.334,-0.066,14.525,24.920,100666.29,-140.786,1969,3575,4880,1606,2911
3.537,-0.016113,0.001953,0.973633,2.290076,-0.015267,0.320611,-0.000709,-0.015627,1.007896,0.729881,0.688715,-0.189582,41.527,0.651,0.026,33.3027,-11.1927,29.7248,46.0208,37.4669,-10.0130,35.6497,52.6776,14.963,15.532,-0.322,0.032,14.512,24.920,100666.62,-140.812,1965,3569,4874,1604,2909
3.657,0.009766,0.007080,0.963867,2.122137,-0.106870,0.335878,0.025299,-0.011021,0.998160,0.561296,0.596302,-0.173967,41.515,0.691,0.067,33.3027,-11.1927,29.7248,46.0208,37.4669,-10.0130,35.6497,52.6776,14.963,15.557,-0.301,-0.073,14.501,24.920,100666.45,-140.796,1968,3570,4881,1602,2913
3.777,-0.010986,0.006104,0.975098,2.183206,-0.045802,0.305344,0.004538,-0.011652,1.009362,0.622527,0.657573,-0.204588,41.518,0.737,0.138,33.3027,-11.1927,29.6330,45.9616,37.4641,-10.0134,35.5386,52.6006,14.964,15.580,-0.282,-0.013,14.490,24.920,100666.62,-140.812,1963,3571,4878,1608,2915
3.897,-0.001465,0.008301,0.968506,2.213740,-0.076336,0.396947,0.014111,-0.009582,1.002816,0.652738,0.626634,-0.112812,41.512,0.788,0.192,33.2110,-11.1009,29.8165,45.9916,37.3616,-9.9072,35.7584,52.6564,14.851,15.506,-0.242,-0.031,14.483,24.910,100666.03,-140.764,1972,3574,4876,1602,2904
4.017,-0.009766,0.000732,0.974609,2.137405,-0.076336,0.381679,0.005606,-0.017049,1.008821,0.576725,0.627039,-0.128252,41.518,0.821,0.256,33.3027,-11.1009,29.7248,45.9985,37.4675,-9.9071,35.6501,52.6583,14.811,15.475,-0.267,0.011,14.475,24.910,100666.69,-140.817,1961,3565,4878,1604,2917
4.137,-0.013428,0.002686,0.976562,2.259542,0.000000,0.412214,0.002003,-0.015034,1.010790,0.699024,0.703577,-0.097805,41.521,0.870,0.331,33.3945,-11.1009,29.7248,46.0650,37.5762,-9.9065,35.6529,52.7375,14.769,15.456,-0.256,0.082,14.466,24.910,100666.59,-140.812,1969,3576,4880,1607,2911
4.257,-0.006592,0.001709,0.968994,2.274809,-0.030534,0.305344,0.008798,-0.016041,1.003259,0.714130,0.672840,-0.204588,41.518,0.918,0.394,33.3027,-11.2844,29.7248,46.0432,37.4664,-10.1189,35.6492,52.6971,15.114,15.825,-0.273,0.098,14.467,24.910,100666.93,-140.838,1965,3569,4874,1604,2909
4.377,-0.013428,-0.001953,0.974365,2.351145,0.000000,0.351145,0.001868,-0.019627,1.008571,0.790789,0.703780,-0.158960,41.524,0.970,0.467,33.3945,-11.1927,29.7248,46.0872,37.5757,-10.0124,35.6524,52.7568,14.920,15.661,-0.290,0.161,14.460,24.910,100666.83,-140.828,1968,3570,4881,1602,2913
4.497,-0.001953,0.003662,0.960449,2.167939,-0.045802,0.305344,0.013477,-0.014034,0.994800,0.606937,0.657168,-0.204415,41.512,1.006,0.519,33.3945,-11.1009,29.7248,46.0650,37.5762,-9.9065,35.6529,52.7375,14.769,15.530,-0.280,0.127,14.436,24.910,100667.00,-140.844,1963,3571,4878,1608,2915
4.617,-0.012939,0.000977,0.978027,2.229008,-0.122137,0.381679,0.002445,-0.016789,1.012221,0.667683,0.580427,-0.127905,41.506,1.046,0.574,33.3945,-11.1009,29.7248,46.0650,37.5762,-9.9065,35.6529,52.7375,14.769,15.551,-0.284,0.166,14.424,24.910,100667.44,-140.881,1971,3573,4875,1602,2904
4.737,-0.016113,-0.002930,0.989258,2.229008,0.000000,0.396947,-0.000819,-0.020850,1.023312,0.668006,0.702970,-0.112812,41.512,1.080,0.646,33.3945,-11.1927,29.8165,46.1464,37.5785,-10.0119,35.7635,52.8338,14.919,15.713,-0.321,0.239,14.423,24.910,100668.09,-140.939,1961,3565,4878,1604,2917
4.857,-0.002930,-0.000977,0.959473,2.244275,-0.106870,0.366412,0.012367,-0.018626,0.993793,0.682627,0.595289,-0.142999,41.501,1.117,0.689,33.3027,-11.1927,29.7248,46.0208,37.4669,-10.0130,35.6497,52.6776,14.963,15.778,-0.341,0.199,14.418,24.910,100668.27,-140.949,1969,3576,4880,1607,2911
4.977,-0.015625,0.001709,0.972900,2.244275,-0.045802,0.274809,-0.000229,-0.015869,1.007167,0.682466,0.656155,-0.234515,41.498,1.157,0.753,33.3945,-11.1009,29.7248,46.0650,37.5762,-9.9065,35.6529,52.7375,14.769,15.605,-0.327,0.255,14.389,24.910,100667.94,-140.923,1965,3569,4874,1604,2909
5.097,0.005371,0.005615,0.968018,2.290076,-0.076336,0.351145,0.020870,-0.012452,1.002274,0.729074,0.626634,-0.158613,41.512,1.205,0.787,33.3027,-11.2844,29.7248,46.0432,37.4664,-10.1189,35.6492,52.6971,15.114,15.979,-0.308,0.162,14.394,24.900,100667.50,-140.886,1968,3570,4881,1602,2913
5.217,-0.011963,0.001465,0.970459,2.244275,-0.045802,0.335878,0.003422,-0.016165,1.004731,0.681821,0.655346,-0.173100,41.486,1.243,0.845,33.3945,-11.1009,29.8165,46.1243,37.5790,-9.9061,35.7639,52.8145,14.768,15.659,-0.303,0.199,14.376,24.900,100667.34,-140.875,1963,3571,4878,1608,2915
5.337,0.000732,0.006592,0.973145,2.152672,-0.061069,0.427481,0.016268,-0.011454,1.007379,0.591024,0.641091,-0.081930,41.501,1.275,0.885,33.3027,-11.1927,29.7248,46.0208,37.4669,-10.0130,35.6497,52.6776,14.963,15.867,-0.290,0.145,14.383,24.900,100667.00,-140.844,1971,3573,4875,1602,2904
5.457,0.000000,0.006592,0.969238,2.274809,-0.137405,0.442748,0.015529,-0.011349,1.003517,0.713484,0.565160,-0.066837,41.506,1.320,0.916,33.3945,-11.1009,29.7248,46.0650,37.5762,-9.9065,35.6529,52.7375,14.769,15.707,-0.253,0.090,14.381,24.900,100666.84,-140.833,1961,3565,4878,1604,2917
5.577,-0.004883,0.003418,0.961426,2.106870,-0.106870,0.351145,0.010542,-0.014216,0.995777,0.545545,0.595694,-0.158440,41.506,1.341,0.955,33.3027,-11.1009,29.7248,45.9985,37.4675,-9.9071,35.6501,52.6583,14.811,15.760,-0.266,0.081,14.374,24.910,100667.77,-140.907,1969,3575,4880,1606,2911
5.697,0.001953,0.008057,0.968750,2.290076,0.000000,0.320611,0.017522,-0.009928,1.003039,0.728590,0.702362,-0.188887,41.504,1.389,0.999,33.3027,-11.1927,29.7248,46.0208,37.4669,-10.0130,35.6497,52.6776,14.963,15.938,-0.234,0.040,14.372,24.910,100667.94,-140.923,1965,3569,4874,1604,2909
5.817,-0.013916,0.002686,0.972412,2.152672,-0.030534,0.320611,0.001507,-0.014930,1.006685,0.591347,0.672030,-0.188974,41.506,1.414,1.056,33.3945,-11.1927,29.8165,46.1464,37.5785,-10.0119,35.7635,52.8338,14.919,15.903,-0.256,0.111,14.371,24.910,100668.27,-140.949,1968,3570,4881,1602,2913
5.937,-0.003418,0.004150,0.960938,2.229008,-0.061069,0.305344,0.012027,-0.013515,0.995294,0.668974,0.643117,-0.204936,41.530,1.449,1.097,33.3027,-11.1927,29.7248,46.0208,37.4669,-10.0130,35.6497,52.6776,14.963,15.966,-0.258,0.096,14.367,24.910,100668.44,-140.965,1963,3571,4878,1608,2915
6.057,-0.011230,0.000244,0.981201,2.274809,-0.061069,0.274809,0.004140,-0.017639,1.015347,0.713484,0.641496,-0.234776,41.506,1.484,1.146,33.3945,-11.1009,29.7248,46.0650,37.5762,-9.9065,35.6529,52.7375,14.769,15.793,-0.269,0.136,14.349,24.910,100668.66,-140.986,1971,3573,4875,1602,2904
6.177,-0.008545,0.001221,0.978271,2.244275,-0.122137,0.381679,0.006848,-0.016675,1.012445,0.682627,0.580022,-0.127732,41.501,1.515,1.183,33.3027,-11.1009,29.6330,45.9393,37.4647,-9.9076,35.5391,52.5813,14.813,15.854,-0.280,0.146,14.345,24.910,100668.50,-140.971,1961,3565,4878,1604,2917
6.297,-0.002441,0.000244,0.967041,2.183206,-0.045802,0.290076,0.012904,-0.017582,1.001292,0.623496,0.658790,-0.220377,41.536,1.538,1.222,33.3027,-11.1927,29.6330,45.9616,37.4641,-10.0134,35.5386,52.6006,14.964,16.011,-0.312,0.123,14.340,24.910,100668.50,-140.971,1969,3576,4880,1607,2911
6.417,-0.019775,-0.001221,0.983887,2.183206,0.045802,0.320611,-0.004443,-0.018920,1.018031,0.622527,0.749176,-0.189321,41.518,1.559,1.291,33.3027,-11.1927,29.7248,46.0208,37.4669,-10.0130,35.6497,52.6776,14.963,16.014,-0.346,0.233,14.337,24.910,100668.33,-140.955,1965,3569,4874,1604,2909
6.537,-0.008545,-0.002441,0.961914,2.229008,-0.061069,0.335878,0.006715,-0.019985,0.996221,0.667038,0.640686,-0.173360,41.495,1.584,1.333,33.3027,-11.1009,29.7248,45.9985,37.4675,-9.9071,35.6501,52.6583,14.811,15.878,-0.369,0.237,14.323,24.910,100667.83,-140.912,1968,3570,4881,1602,2913
6.657,-0.013916,0.001953,0.977051,2.244275,-0.106870,0.320611,0.001495,-0.015763,1.011269,0.683434,0.596302,-0.189234,41.515,1.614,1.375,33.2110,-11.1009,29.6330,45.8728,37.3560,-9.9081,35.5363,52.5021,14.855,15.937,-0.358,0.272,14.309,24.910,100667.83,-140.912,1963,3571,4878,1608,2915
6.777,0.003906,0.003174,0.971191,2.152672,-0.061069,0.305344,0.019342,-0.014921,1.005399,0.591024,0.641091,-0.204068,41.501,1.635,1.400,33.3027,-11.1927,29.8165,46.0801,37.4697,-10.0125,35.7607,52.7547,14.961,16.054,-0.362,0.188,14.302,24.910,100667.76,-140.907,1971,3573,4875,1602,2904
6.897,-0.004639,-0.000488,0.968262,2.229008,0.045802,0.335878,0.010688,-0.018279,1.002504,0.668006,0.748771,-0.173880,41.512,1.660,1.448,33.3027,-11.1927,29.7248,46.0208,37.4669,-10.0130,35.6497,52.6776,14.963,16.062,-0.381,0.186,14.299,24.910,100667.59,-140.897,1961,3565,4878,1604,2917
7.017,-0.010742,0.005615,0.972168,2.366412,0.045802,0.290076,0.004763,-0.012084,1.006457,0.807186,0.751001,-0.220637,41.545,1.708,1.502,33.2110,-11.1927,29.7248,45.9544,37.3582,-10.0136,35.6469,52.5985,15.005,16.134,-0.340,0.226,14.293,24.910,100667.09,-140.854,1969,3575,4880,1606,2911
7.137,0.009766,0.007568,0.953857,2.229008,-0.122137,0.335878,0.025295,-0.010316,0.988259,0.668813,0.581845,-0.174314,41.527,1.740,1.511,33.3027,-11.1927,29.7248,46.0208,37.4669,-10.0130,35.6497,52.6776,14.963,16.116,-0.309,0.098,14.292,24.910,100666.50,-140.801,1965,3569,4874,1604,2909
7.257,-0.005127,0.000977,0.962891,2.167939,0.000000,0.320611,0.010231,-0.016683,0.997205,0.606291,0.702160,-0.188800,41.501,1.758,1.552,33.3027,-11.1927,29.9083,46.1395,37.4725,-10.0120,35.8717,52.8319,14.959,16.124,-0.335,0.105,14.292,24.910,100666.50,-140.801,1968,3570,4881,1602,2913
7.377,-0.002197,0.007080,0.968750,2.335878,-0.015267,0.381679,0.013344,-0.010788,1.003049,0.776006,0.689121,-0.128687,41.533,1.801,1.587,33.3945,-11.1009,29.8165,46.1243,37.5790,-9.9061,35.7639,52.8145,14.768,15.962,-0.285,0.086,14.286,24.910,100665.94,-140.754,1963,3571,4878,1608,2915
7.497,-0.002441,0.004883,0.959229,2.213740,-0.061069,0.366412,0.013021,-0.012773,0.993606,0.652738,0.641901,-0.143346,41.512,1.827,1.615,33.3027,-11.1009,29.8165,46.0579,37.4703,-9.9066,35.7612,52.7354,14.809,16.021,-0.275,0.066,14.285,24.910,100665.77,-140.743,1971,3573,4875,1602,2904
7.617,-0.003906,0.004639,0.971436,2.290076,-0.030534,0.320611,0.011571,-0.013239,1.005691,0.730366,0.674057,-0.189842,41.536,1.862,1.649,33.3027,-11.1009,29.8165,46.0579,37.4703,-9.9066,35.7612,52.7354,14.809,16.042,-0.260,0.064,14.278,24.900,100665.34,-140.706,1961,3565,4878,1604,2917
7.737,0.002441,0.009277,0.970215,2.320611,0.030534,0.381679,0.018048,-0.008753,1.004498,0.759609,0.733504,-0.128079,41.512,1.904,1.682,33.3945,-11.2844,29.6330,46.0505,37.5723,-10.1188,35.5409,52.6994,15.073,16.313,-0.229,0.029,14.299,24.900,100665.34,-140.706,1969,3576,4880,1607,2911
7.857,-0.010498,0.000244,0.971680,2.213740,0.000000,0.381679,0.004855,-0.017454,1.005921,0.653061,0.703375,-0.128252,41.518,1.923,1.725,33.3027,-11.0092,29.8165,46.0359,37.4709,-9.8008,35.7616,52.7164,14.658,15.931,-0.251,0.079,14.292,24.900,100665.91,-140.754,1965,3569,4874,1604,2909
7.977,-0.009033,0.000488,0.972900,2.213740,-0.030534,0.335878,0.006329,-0.017278,1.007124,0.652254,0.671827,-0.173620,41.504,1.941,1.763,33.3945,-11.1927,29.7248,46.0872,37.5757,-10.0124,35.6524,52.7568,14.920,16.183,-0.283,0.112,14.296,24.900,100666.50,-140.801,1968,3570,4881,1602,2913
8.097,-0.000732,0.002197,0.971436,2.213740,-0.076336,0.381679,0.014676,-0.015772,1.005652,0.652900,0.626836,-0.128166,41.515,1.961,1.784,33.3945,-11.1927,29.7248,46.0872,37.5757,-10.0124,35.6524,52.7568,14.920,16.194,-0.299,0.079,14.303,24.900,100666.84,-140.833,1963,3571,4878,1608,2915
8.217,-0.017334,0.000244,0.973633,2.122137,0.061069,0.351145,-0.001978,-0.017302,1.007886,0.561458,0.764443,-0.158787,41.518,1.968,1.841,33.3027,-11.1927,29.7248,46.0208,37.4669,-10.0130,35.6497,52.6776,14.963,16.231,-0.335,0.180,14.308,24.900,100667.00,-140.844,1971,3573,4875,1602,2904
8.337,-0.004639,0.001221,0.966553,2.229008,-0.030534,0.320611,0.010733,-0.016532,1.000829,0.668651,0.673246,-0.189495,41.524,1.989,1.871,33.3945,-11.1927,29.8165,46.1464,37.5785,-10.0119,35.7635,52.8338,14.919,16.199,-0.344,0.170,14.302,24.900,100666.67,-140.817,1961,3565,4878,1604,2917
8.457,-0.013428,0.002686,0.974609,2.198473,-0.030534,0.427481,0.001999,-0.014992,1.008857,0.637471,0.672435,-0.082277,41.512,2.007,1.910,33.3945,-11.2844,29.8165,46.1688,37.5779,-10.1178,35.7630,52.8532,15.069,16.350,-0.353,0.223,14.319,24.910,100666.44,-140.796,1969,3576,4880,1607,2911
8.577,-0.001465,0.001221,0.972412,2.244275,-0.015267,0.366412,0.013918,-0.016749,1.006613,0.683919,0.688513,-0.143693,41.524,2.028,1.937,33.3027,-11.1009,29.7248,45.9985,37.4675,-9.9071,35.6501,52.6583,14.811,16.114,-0.350,0.185,14.309,24.910,100665.59,-140.728,1965,3569,4874,1604,2909
8.697,-0.003174,0.006592,0.975830,2.244275,-0.076336,0.381679,0.012366,-0.011401,1.010055,0.683596,0.627039,-0.128252,41.518,2.055,1.958,33.3027,-11.1927,29.8165,46.0801,37.4697,-10.0125,35.7607,52.7547,14.961,16.279,-0.321,0.158,14.312,24.910,100665.27,-140.701,1968,3570,4881,1602,2913
8.817,-0.002686,0.006104,0.964844,2.167939,-0.076336,0.335878,0.012821,-0.011666,0.999176,0.608390,0.628458,-0.174662,41.539,2.072,1.978,33.3027,-11.1927,29.7248,46.0208,37.4669,-10.0130,35.6497,52.6776,14.963,16.286,-0.309,0.131,14.312,24.910,100665.33,-140.706,1963,3571,4878,1608,2915
8.937,0.005371,0.005371,0.960938,2.290076,-0.015267,0.351145,0.020851,-0.012543,0.995265,0.729720,0.688513,-0.158960,41.524,2.102,1.996,33.3027,-11.1927,29.6330,45.9616,37.4641,-10.0134,35.5386,52.6006,14.964,16.305,-0.291,0.059,14.315,24.910,100665.50,-140.717,1971,3573,4875,1602,2904
9.057,-0.014648,0.002686,0.974121,2.229008,-0.091603,0.381679,0.000777,-0.014947,1.008380,0.668974,0.612582,-0.128600,41.530,2.122,2.027,33.3027,-11.1927,29.8165,46.0801,37.4697,-10.0125,35.7607,52.7547,14.961,16.319,-0.299,0.126,14.323,24.910,100665.00,-140.675,1961,3565,4878,1604,2917
9.177,-0.010254,-0.003418,0.972412,2.229008,0.045802,0.381679,0.004997,-0.021140,1.006609,0.669782,0.751001,-0.129034,41.545,2.134,2.069,33.3945,-11.1927,29.6330,46.0281,37.5729,-10.0129,35.5414,52.6799,14.922,16.271,-0.345,0.171,14.327,24.910,100665.43,-140.712,1969,3576,4880,1607,2911
9.297,-0.004639,-0.001709,0.966553,2.229008,-0.076336,0.259542,0.010650,-0.019463,1.000800,0.668329,0.627039,-0.250390,41.518,2.147,2.089,33.1193,-11.2844,29.7248,45.9106,37.2489,-10.1200,35.6436,52.5391,15.200,16.557,-0.388,0.161,14.330,24.910,100665.77,-140.743,1965,3569,4874,1604,2909
9.417,-0.018311,0.001465,0.979736,2.274809,-0.030534,0.320611,-0.002909,-0.016185,1.013942,0.715099,0.674057,-0.189842,41.536,2.170,2.130,33.3027,-11.1927,29.7248,46.0208,37.4669,-10.0130,35.6497,52.6776,14.963,16.333,-0.380,0.245,14.323,24.910,100666.19,-140.775,1968,3570,4881,1602,2913
9.537,-0.003418,-0.003662,0.970947,2.229008,0.061069,0.351145,0.011824,-0.021546,1.005125,0.668974,0.765254,-0.159134,41.530,2.181,2.164,33.3027,-11.1927,29.7248,46.0208,37.4669,-10.0130,35.6497,52.6776,14.963,16.334,-0.415,0.230,14.319,24.910,100666.36,-140.791,1963,3571,4878,1608,2915
9.657,-0.015625,0.001221,0.974365,2.259542,0.015267,0.396947,-0.000240,-0.016390,1.008612,0.699832,0.719858,-0.113507,41.536,2.201,2.206,33.3027,-11.1927,29.7248,46.0208,37.4669,-10.0130,35.6497,52.6776,14.963,16.341,-0.406,0.294,14.318,24.910,100666.19,-140.775,1971,3573,4875,1602,2904
9.777,0.009033,0.002441,0.960693,2.244275,-0.061069,0.351145,0.024430,-0.015572,0.994978,0.683757,0.642509,-0.158873,41.521,2.220,2.209,33.3027,-11.1009,29.7248,45.9985,37.4675,-9.9071,35.6501,52.6583,14.811,16.212,-0.387,0.168,14.303,24.920,100666.45,-140.796,1961,3565,4878,1604,2917
9.897,-0.002930,0.002441,0.965332,2.183206,0.015267,0.412214,0.012474,-0.015333,0.999625,0.622689,0.718844,-0.097805,41.521,2.231,2.235,33.3945,-11.1009,29.8165,46.1243,37.5790,-9.9061,35.7639,52.8145,14.768,16.174,-0.376,0.149,14.295,24.920,100666.12,-140.770,1969,3576,4880,1607,2911
10.017,-0.009277,0.004150,0.968994,2.290076,0.076336,0.290076,0.006181,-0.013523,1.003295,0.729235,0.779508,-0.219769,41.515,2.256,2.275,33.3027,-11.2844,29.7248,46.0432,37.4664,-10.1189,35.6492,52.6971,15.114,16.515,-0.362,0.189,14.298,24.920,100666.22,-140.780,1965,3569,4874,1604,2909
10.137,0.001953,0.005615,0.962402,2.152672,-0.061069,0.366412,0.017442,-0.012233,0.996733,0.591670,0.641901,-0.143346,41.512,2.267,2.285,33.3027,-11.1927,29.7248,46.0208,37.4669,-10.0130,35.6497,52.6776,14.963,16.378,-0.349,0.128,14.299,24.920,100666.05,-140.764,1968,3570,4881,1602,2913
10.257,-0.013184,0.002930,0.974609,2.259542,-0.106870,0.351145,0.002250,-0.014755,1.008859,0.698540,0.596099,-0.158613,41.512,2.287,2.307,33.3027,-11.1009,29.7248,45.9985,37.4675,-9.9071,35.6501,52.6583,14.811,16.245,-0.334,0.171,14.291,24.920,100666.16,-140.775,1963,3571,4878,1608,2915
10.377,-0.005127,0.006592,0.977539,2.290076,-0.045802,0.351145,0.010416,-0.011383,1.011756,0.728590,0.656560,-0.158353,41.504,2.314,2.326,33.3027,-11.0092,29.7248,45.9765,37.4681,-9.8012,35.6506,52.6392,14.659,16.119,-0.286,0.159,14.273,24.920,100666.41,-140.796,1971,3573,4875,1602,2904
10.497,-0.006836,0.002197,0.963867,2.259542,-0.045802,0.396947,0.008558,-0.015435,0.998191,0.700155,0.659195,-0.113680,41.542,2.332,2.347,33.3945,-11.1927,29.8165,46.1464,37.5785,-10.0119,35.7635,52.8338,14.919,16.376,-0.294,0.165,14.282,24.930,100666.48,-140.801,1961,3565,4878,1604,2917
10.617,-0.016357,-0.001465,0.973145,2.152672,0.000000,0.290076,-0.001051,-0.019029,1.007381,0.592638,0.704185,-0.220203,41.530,2.334,2.384,33.2110,-11.1927,29.7248,45.9544,37.3582,-10.0136,35.6469,52.5985,15.005,16.454,-0.342,0.243,14.282,24.930,100665.98,-140.759,1969,3576,4880,1607,2911
10.737,-0.000244,0.003662,0.979004,2.213740,-0.137405,0.290076,0.015219,-0.014484,1.013154,0.653545,0.566578,-0.220116,41.527,2.348,2.386,33.3027,-11.3761,29.8165,46.1250,37.4686,-10.2243,35.7598,52.7938,15.263,16.711,-0.357,0.188,14.295,24.930,100666.31,-140.786,1965,3569,4874,1604,2909
10.857,-0.018311,-0.001709,0.970459,2.213740,-0.030534,0.335878,-0.003016,-0.019160,1.004730,0.653384,0.673246,-0.174227,41.524,2.356,2.421,33.3945,-11.1927,29.8165,46.1464,37.5785,-10.0119,35.7635,52.8338,14.919,16.379,-0.382,0.271,14.291,24.930,100666.14,-140.775,1968,3570,4881,1602,2913
10.977,0.012451,0.005859,0.953613,2.259542,0.000000,0.320611,0.027932,-0.012097,0.987988,0.700316,0.705199,-0.190103,41.545,2.377,2.423,33.3027,-11.1009,29.8165,46.0579,37.4703,-9.9066,35.7612,52.7354,14.809,16.296,-0.343,0.130,14.275,24.930,100666.58,-140.812,1963,3571,4878,1608,2915
11.097,-0.010742,0.003662,0.982178,2.213740,0.030534,0.320611,0.004726,-0.014255,1.016344,0.653707,0.734720,-0.189669,41.530,2.390,2.456,33.2110,-11.1927,29.8165,46.0138,37.3610,-10.0131,35.7579,52.6757,15.003,16.487,-0.343,0.176,14.276,24.930,100666.58,-140.812,1971,3573,4875,1602,2904
11.217,-0.002686,0.005371,0.969238,2.244275,-0.045802,0.335878,0.012808,-0.012494,1.003518,0.683434,0.657370,-0.173967,41.515,2.408,2.469,33.2110,-11.1009,29.7248,45.9322,37.3588,-9.9077,35.6473,52.5792,14.853,16.353,-0.318,0.150,14.270,24.930,100667.17,-140.860,1961,3565,4878,1604,2917
11.337,-0.001953,0.006104,0.958008,2.244275,-0.106870,0.427481,0.013541,-0.011539,0.992407,0.684241,0.597315,-0.082798,41.530,2.427,2.474,33.3027,-11.1927,29.8165,46.0801,37.4697,-10.0125,35.7607,52.7547,14.961,16.470,-0.300,0.115,14.283,24.930,100667.17,-140.860,1969,3576,4880,1607,2911
11.457,-0.007324,0.001709,0.973877,2.198473,-0.076336,0.305344,0.008074,-0.016126,1.008095,0.637956,0.627241,-0.204675,41.521,2.435,2.489,33.3027,-11.1009,29.7248,45.9985,37.4675,-9.9071,35.6501,52.6583,14.811,16.327,-0.311,0.125,14.274,24.930,100667.34,-140.875,1965,3569,4874,1604,2909
11.577,-0.001465,0.001221,0.967041,2.229008,0.045802,0.351145,0.013908,-0.016633,1.001297,0.668974,0.749987,-0.159134,41.530,2.446,2.512,33.2110,-11.1009,29.7248,45.9322,37.3588,-9.9077,35.6473,52.5792,14.853,16.375,-0.323,0.108,14.272,24.930,100667.50,-140.886,1968,3570,4881,1602,2913
11.697,-0.019287,0.001953,0.973877,2.167939,-0.061069,0.351145,-0.003883,-0.015542,1.008153,0.608067,0.643319,-0.159221,41.533,2.451,2.542,33.3945,-11.1009,29.6330,46.0059,37.5734,-9.9070,35.5419,52.6606,14.771,16.282,-0.328,0.202,14.264,24.930,100668.10,-140.939,1963,3571,4878,1608,2915
11.817,-0.006104,0.001465,0.972900,2.213740,0.045802,0.351145,0.009286,-0.016384,1.007120,0.654192,0.750595,-0.159395,41.539,2.461,2.569,33.2110,-11.1927,29.7248,45.9544,37.3582,-10.0136,35.6469,52.5985,15.005,16.517,-0.346,0.210,14.270,24.930,100667.44,-140.881,1971,3573,4875,1602,2904
11.937,-0.013428,0.002197,0.972168,2.305344,-0.061069,0.366412,0.001981,-0.015427,1.006437,0.745472,0.643319,-0.143954,41.533,2.481,2.591,33.2110,-11.1009,29.8165,45.9916,37.3616,-9.9072,35.7584,52.6564,14.851,16.389,-0.333,0.252,14.267,24.930,100667.27,-140.865,1961,3565,4878,1604,2917
12.057,-0.011475,0.001953,0.974365,2.198473,-0.061069,0.290076,0.003931,-0.015775,1.008600,0.638925,0.643725,-0.220464,41.539,2.489,2.610,33.3027,-11.1009,29.6330,45.9393,37.4647,-9.9076,35.5391,52.5813,14.813,16.341,-0.335,0.275,14.252,24.940,100667.03,-140.849,1969,3576,4880,1607,2911
12.177,0.000977,0.004150,0.960205,2.198473,-0.122137,0.366412,0.016420,-0.013624,0.994549,0.638763,0.582454,-0.144041,41.536,2.499,2.607,33.2110,-11.2844,29.8165,46.0362,37.3604,-10.1190,35.7574,52.6952,15.155,16.686,-0.344,0.206,14.269,24.940,100667.03,-140.849,1965,3569,4874,1604,2909
12.297,-0.012207,0.001221,0.975586,2.213740,-0.030534,0.335878,0.003180,-0.016513,1.009804,0.655646,0.676086,-0.175445,41.565,2.507,2.631,33.3945,-11.1009,29.8165,46.1243,37.5790,-9.9061,35.7639,52.8145,14.768,16.313,-0.345,0.243,14.257,24.940,100666.86,-140.833,1968,3570,4881,1602,2913
12.417,-0.010742,0.000977,0.973389,2.244275,0.000000,0.290076,0.004634,-0.016751,1.007620,0.684080,0.703983,-0.220116,41.527,2.518,2.656,33.3027,-11.1009,29.7248,45.9985,37.4675,-9.9071,35.6501,52.6583,14.811,16.358,-0.347,0.269,14.242,24.940,100666.97,-140.844,1963,3571,4878,1608,2915
12.537,-0.014404,0.000244,0.977539,2.244275,-0.030534,0.412214,0.000959,-0.017470,1.011738,0.684888,0.674462,-0.098413,41.542,2.529,2.681,33.3027,-11.1927,29.7248,46.0208,37.4669,-10.0130,35.6497,52.6776,14.963,16.504,-0.362,0.316,14.252,24.940,100667.12,-140.854,1971,3573,4875,1602,2904
12.657,-0.013184,0.000732,0.974609,2.213740,-0.106870,0.351145,0.002188,-0.016953,1.008837,0.653707,0.597315,-0.159134,41.530,2.536,2.695,33.3027,-11.1927,29.7248,46.0208,37.4669,-10.0130,35.6497,52.6776,14.963,16.506,-0.374,0.340,14.253,24.940,100667.56,-140.891,1961,3565,4878,1604,2917
12.777,-0.002930,0.003418,0.968750,2.213740,-0.030534,0.305344,0.012508,-0.014430,1.003017,0.654515,0.674665,-0.205370,41.545,2.546,2.706,33.3945,-11.1009,29.7248,46.0650,37.5762,-9.9065,35.6529,52.7375,14.769,16.325,-0.356,0.296,14.234,24.940,100667.39,-140.875,1969,3576,4880,1607,2911
12.897,-0.013672,-0.002441,0.975830,2.259542,-0.061069,0.381679,0.001612,-0.020140,1.010017,0.699993,0.643725,-0.128861,41.539,2.554,2.726,33.2110,-11.1009,29.8165,45.9916,37.3616,-9.9072,35.7584,52.6564,14.851,16.418,-0.380,0.330,14.233,24.940,100667.73,-140.907,1965,3569,4874,1604,2909
13.017,-0.003174,0.005371,0.972168,2.152672,0.015267,0.412214,0.012325,-0.012543,1.006419,0.592962,0.719858,-0.098239,41.536,2.558,2.742,33.3027,-11.1927,29.8165,46.0801,37.4697,-10.0125,35.7607,52.7547,14.961,16.517,-0.367,0.297,14.240,24.940,100667.73,-140.907,1968,3570,4881,1602,2913
13.137,-0.010742,0.005127,0.973145,2.198473,-0.030534,0.335878,0.004751,-0.012594,1.007419,0.638601,0.673854,-0.174488,41.533,2.568,2.761,33.3945,-11.1927,29.7248,46.0872,37.5757,-10.0124,35.6524,52.7568,14.920,16.474,-0.349,0.314,14.237,24.940,100667.56,-140.891,1963,3571,4878,1608,2915
13.267,-0.014648,0.003174,0.984619,2.259542,0.061069,0.259542,0.000810,-0.014685,1.018774,0.699670,0.765457,-0.250824,41.533,2.589,2.803,33.3027,-11.2844,29.8165,46.1024,37.4692,-10.1184,35.7602,52.7742,15.112,16.671,-0.351,0.374,14.238,24.940,100667.56,-140.891,1975,3578,4875,1603,2900
13.387,-0.007080,0.005615,0.971924,2.259542,-0.045802,0.305344,0.008425,-0.012183,1.006198,0.699993,0.658992,-0.205196,41.539,2.606,2.815,33.3945,-11.1009,29.8165,46.1243,37.5790,-9.9061,35.7639,52.8145,14.768,16.353,-0.316,0.353,14.221,24.940,100667.23,-140.865,1963,3565,4873,1602,2910
13.507,-0.002930,-0.001465,0.962891,2.229008,-0.015267,0.351145,0.012360,-0.019188,0.997171,0.669944,0.690135,-0.159656,41.548,2.611,2.825,33.3027,-11.2844,29.8165,46.1024,37.4692,-10.1184,35.7602,52.7742,15.112,16.683,-0.360,0.316,14.236,24.940,100666.89,-140.833,1978,3582,4888,1604,2910
13.627,-0.010742,0.010498,0.968262,2.229008,0.061069,0.351145,0.004894,-0.007116,1.002639,0.669944,0.766471,-0.159656,41.548,2.629,2.853,33.3027,-11.1927,29.8165,46.0801,37.4697,-10.0125,35.7607,52.7547,14.961,16.550,-0.305,0.341,14.237,24.940,100667.06,-140.849,1967,3569,4874,1602,2907
13.747,0.008789,0.003174,0.959473,2.213740,0.015267,0.366412,0.024204,-0.014806,0.993778,0.654030,0.719858,-0.144041,41.536,2.636,2.853,33.3027,-11.1009,29.8165,46.0579,37.4703,-9.9066,35.7612,52.7354,14.809,16.413,-0.305,0.222,14.233,24.940,100666.89,-140.833,1974,3577,4885,1603,2911
13.867,-0.004639,0.004883,0.961426,2.183206,-0.091603,0.213740,0.010827,-0.012758,0.995791,0.623819,0.613394,-0.296886,41.542,2.642,2.856,33.2110,-11.1009,29.8165,45.9916,37.3616,-9.9072,35.7584,52.6564,14.851,16.462,-0.299,0.199,14.216,24.940,100666.73,-140.823,1965,3569,4874,1604,2909
13.987,-0.003174,0.006836,0.970215,2.167939,0.061069,0.351145,0.012363,-0.011036,1.004501,0.608875,0.766471,-0.159656,41.548,2.648,2.875,33.2110,-11.2844,29.8165,46.0362,37.3604,-10.1190,35.7574,52.6952,15.155,16.748,-0.301,0.192,14.237,24.940,100666.56,-140.807,1977,3579,4886,1602,2909
14.107,-0.006104,-0.000488,0.963135,2.213740,-0.015267,0.351145,0.009214,-0.018126,0.997437,0.654353,0.689730,-0.159482,41.542,2.652,2.888,33.3027,-11.0092,29.7248,45.9765,37.4681,-9.8012,35.6506,52.6392,14.659,16.273,-0.318,0.189,14.224,24.940,100666.39,-140.796,1963,3565,4872,1602,2909
14.227,-0.017334,0.001221,0.984131,2.259542,-0.030534,0.366412,-0.001932,-0.016552,1.018285,0.700478,0.674868,-0.144389,41.548,2.662,2.911,33.2110,-11.2844,29.8165,46.0362,37.3604,-10.1190,35.7574,52.6952,15.155,16.751,-0.343,0.270,14.245,24.940,100666.73,-140.823,1975,3580,4886,1605,2911
14.347,-0.001465,0.000732,0.967285,2.122137,-0.106870,0.366412,0.013895,-0.017127,1.001534,0.562912,0.598329,-0.144301,41.545,2.656,2.908,33.3027,-11.2844,29.7248,46.0432,37.4664,-10.1189,35.6492,52.6971,15.114,16.699,-0.381,0.221,14.260,24.940,100666.56,-140.807,1967,3569,4874,1602,2907
14.467,-0.010742,-0.001953,0.979248,2.183206,0.030534,0.381679,0.004562,-0.019809,1.013391,0.624465,0.736343,-0.129296,41.554,2.654,2.931,33.3945,-11.1927,29.8165,46.1464,37.5785,-10.0119,35.7635,52.8338,14.919,16.508,-0.410,0.256,14.261,24.940,100666.80,-140.828,1974,3577,4885,1603,2911
14.587,-0.011475,-0.001221,0.978271,2.229008,-0.106870,0.320611,0.003849,-0.019034,1.012435,0.668651,0.596910,-0.189495,41.524,2.658,2.938,33.2110,-11.1009,29.8165,45.9916,37.3616,-9.9072,35.7584,52.6564,14.851,16.455,-0.419,0.273,14.248,24.940,100666.30,-140.786,1965,3569,4874,1604,2909
14.707,-0.001953,0.004883,0.961914,2.198473,-0.061069,0.335878,0.013514,-0.012845,0.996261,0.639733,0.644740,-0.175097,41.554,2.665,2.940,33.3027,-11.1927,29.7248,46.0208,37.4669,-10.0130,35.6497,52.6776,14.963,16.557,-0.397,0.228,14.244,24.940,100665.80,-140.743,1977,3579,4886,1602,2909
14.827,-0.006348,0.001465,0.966064,2.213740,-0.030534,0.305344,0.009030,-0.016229,1.000356,0.653869,0.673854,-0.205023,41.533,2.670,2.950,33.3945,-11.1927,29.7248,46.0872,37.5757,-10.0124,35.6524,52.7568,14.920,16.515,-0.398,0.224,14.236,24.940,100665.62,-140.728,1963,3565,4872,1602,2909
14.947,0.003662,0.005127,0.963867,2.259542,-0.076336,0.381679,0.019140,-0.012802,0.998170,0.700155,0.628661,-0.128948,41.542,2.684,2.943,33.3027,-11.1009,29.8165,46.0579,37.4703,-9.9066,35.7612,52.7354,14.809,16.433,-0.364,0.143,14.231,24.940,100665.30,-140.701,1975,3580,4886,1605,2911
15.067,-0.004395,0.000488,0.963379,2.213740,-0.122137,0.396947,0.010951,-0.017203,0.997680,0.654353,0.582859,-0.113680,41.542,2.688,2.940,33.3027,-11.1927,29.7248,46.0208,37.4669,-10.0130,35.6497,52.6776,14.963,16.575,-0.382,0.126,14.241,24.950,100665.39,-140.712,1967,3569,4874,1602,2907
15.187,-0.017578,-0.001953,0.974854,2.198473,-0.061069,0.320611,-0.002282,-0.019520,1.009073,0.639409,0.644334,-0.190190,41.548,2.687,2.959,33.3027,-11.1927,29.8165,46.0801,37.4697,-10.0125,35.7607,52.7547,14.961,16.573,-0.413,0.208,14.240,24.950,100665.22,-140.696,1974,3577,4885,1603,2911
15.307,-0.002197,-0.000244,0.974609,2.213740,-0.076336,0.412214,0.013148,-0.018241,1.008776,0.655000,0.629472,-0.098761,41.554,2.690,2.959,33.3027,-11.1009,29.8165,46.0579,37.4703,-9.9066,35.7612,52.7354,14.809,16.433,-0.418,0.172,14.237,24.950,100665.22,-140.696,1965,3569,4874,1604,2909
15.427,-0.018555,-0.001465,0.970215,2.320611,-0.137405,0.335878,-0.003253,-0.018903,1.004492,0.761547,0.567998,-0.174923,41.548,2.704,2.971,33.2110,-11.1009,29.7248,45.9322,37.3588,-9.9077,35.6473,52.5792,14.853,16.483,-0.418,0.244,14.229,24.950,100664.55,-140.638,1977,3579,4886,1602,2909
15.547,-0.000244,0.001465,0.969482,2.290076,-0.076336,0.366412,0.015140,-0.016476,1.003710,0.730528,0.628458,-0.144128,41.539,2.717,2.968,33.2110,-11.1927,29.7248,45.9544,37.3582,-10.0136,35.6469,52.5985,15.005,16.637,-0.413,0.192,14.233,24.950,100664.82,-140.664,1963,3565,4872,1602,2909
15.667,-0.004639,0.003662,0.975830,2.213740,0.030534,0.320611,0.010819,-0.014291,1.010034,0.654515,0.735734,-0.190103,41.545,2.723,2.983,33.3027,-11.1927,29.7248,46.0208,37.4669,-10.0130,35.6497,52.6776,14.963,16.595,-0.400,0.188,14.230,24.950,100664.05,-140.595,1975,3580,4886,1605,2911
15.787,-0.005615,0.007568,0.965332,2.213740,0.030534,0.351145,0.009933,-0.010128,0.999687,0.653545,0.734517,-0.159047,41.527,2.734,2.998,33.3027,-11.1927,29.7248,46.0208,37.4669,-10.0130,35.6497,52.6776,14.963,16.600,-0.363,0.190,14.232,24.950,100664.32,-140.622,1967,3569,4874,1602,2907
15.907,0.001465,0.005615,0.961670,2.152672,-0.137405,0.351145,0.016952,-0.012204,0.996011,0.593770,0.568201,-0.159743,41.551,2.735,2.985,33.3945,-11.1927,29.7248,46.0872,37.5757,-10.0124,35.6524,52.7568,14.920,16.560,-0.351,0.123,14.233,24.950,100664.16,-140.606,1974,3577,4885,1603,2911
16.027,-0.008545,0.002441,0.968506,2.244275,0.000000,0.396947,0.006864,-0.015243,1.002792,0.686181,0.706621,-0.114377,41.565,2.744,3.001,33.3027,-11.1927,29.8165,46.0801,37.4697,-10.0125,35.7607,52.7547,14.961,16.611,-0.353,0.152,14.244,24.950,100663.98,-140.590,1965,3569,4874,1604,2909
16.147,0.001465,0.001953,0.959717,2.167939,-0.030534,0.335878,0.016846,-0.015825,0.994042,0.609360,0.675477,-0.175184,41.556,2.742,3.001,33.3027,-11.2844,29.8165,46.1024,37.4692,-10.1184,35.7602,52.7742,15.112,16.751,-0.377,0.106,14.256,24.950,100664.25,-140.617,1977,3579,4886,1602,2909
16.267,-0.004883,0.005127,0.962891,2.183206,-0.045802,0.381679,0.010593,-0.012539,0.997244,0.624627,0.660210,-0.129383,41.556,2.746,3.006,33.2110,-11.1927,29.8165,46.0138,37.3610,-10.0131,35.7579,52.6757,15.003,16.656,-0.366,0.105,14.264,24.950,100663.92,-140.585,1963,3565,4872,1602,2909
16.387,0.010986,0.003174,0.956543,2.198473,0.030534,0.381679,0.026397,-0.014805,0.990869,0.639409,0.735937,-0.129122,41.548,2.750,3.002,33.3027,-11.1009,29.8165,46.0579,37.4703,-9.9066,35.7612,52.7354,14.809,16.473,-0.359,0.000,14.261,24.950,100664.34,-140.622,1975,3580,4886,1605,2911
16.507,-0.010254,0.004639,0.968506,2.213740,-0.045802,0.320611,0.005217,-0.012996,1.002821,0.655970,0.661225,-0.190887,41.571,2.757,3.014,33.2110,-11.1927,29.8165,46.0138,37.3610,-10.0131,35.7579,52.6757,15.003,16.663,-0.351,0.050,14.264,24.950,100663.68,-140.564,1967,3569,4874,1602,2907
16.627,-0.008057,0.008057,0.971680,2.213740,0.076336,0.503817,0.007517,-0.009708,1.005985,0.654192,0.781130,-0.006723,41.539,2.768,3.037,33.3945,-11.1009,29.7248,46.0650,37.5762,-9.9065,35.6529,52.7375,14.769,16.433,-0.307,0.089,14.275,24.950,100663.52,-140.553,1974,3577,4885,1603,2911
16.747,-0.003662,0.003418,0.956543,2.183206,-0.030534,0.366412,0.011754,-0.014146,0.990939,0.623819,0.674462,-0.144215,41.542,2.769,3.042,33.3945,-11.1009,29.7248,46.0650,37.5762,-9.9065,35.6529,52.7375,14.769,16.434,-0.305,0.081,14.270,24.960,100663.78,-140.574,1965,3569,4874,1604,2909
16.867,-0.005615,0.004395,0.974854,2.198473,0.045802,0.320611,0.009861,-0.013509,1.009079,0.640541,0.752625,-0.190800,41.568,2.774,3.059,33.3945,-11.0092,29.9083,46.1617,37.5824,-9.7997,35.8754,52.8727,14.615,16.298,-0.287,0.095,14.250,24.960,100664.28,-140.617,1977,3579,4886,1602,2909
16.987,0.000488,0.006348,0.974365,2.213740,0.045802,0.396947,0.016019,-0.011718,1.008586,0.655161,0.751813,-0.114115,41.556,2.782,3.068,33.3027,-11.1927,29.7248,46.0208,37.4669,-10.0130,35.6497,52.6776,14.963,16.624,-0.279,0.071,14.264,24.960,100664.45,-140.632,1963,3565,4872,1602,2909
17.107,-0.014893,-0.001953,0.970703,2.152672,0.000000,0.335878,0.000396,-0.019506,1.004954,0.594416,0.706417,-0.175358,41.562,2.774,3.089,33.3027,-11.1009,29.9083,46.1173,37.4731,-9.9062,35.8722,52.8127,14.808,16.477,-0.324,0.148,14.260,24.960,100664.88,-140.664,1975,3580,4886,1605,2911
17.227,-0.008057,0.005615,0.977783,2.290076,-0.045802,0.396947,0.007459,-0.012282,1.012002,0.731982,0.660819,-0.114377,41.565,2.791,3.096,33.3945,-11.1927,29.7248,46.0872,37.5757,-10.0124,35.6524,52.7568,14.920,16.581,-0.300,0.164,14.268,24.960,100665.20,-140.696,1967,3569,4874,1602,2907
17.347,-0.008789,0.007568,0.978516,2.213740,0.015267,0.305344,0.006783,-0.010323,1.012749,0.655323,0.721482,-0.205806,41.559,2.800,3.112,33.3027,-11.1927,29.8165,46.0801,37.4697,-10.0125,35.7607,52.7547,14.961,16.632,-0.278,0.191,14.268,24.960,100664.88,-140.664,1974,3577,4885,1603,2911
17.467,-0.011230,0.003174,0.967041,2.183206,-0.152672,0.442748,0.004197,-0.014402,1.001362,0.624304,0.552934,-0.068140,41.551,2.801,3.110,33.3027,-11.1927,29.7248,46.0208,37.4669,-10.0130,35.6497,52.6776,14.963,16.630,-0.292,0.211,14.286,24.960,100664.70,-140.654,1965,3569,4874,1604,2909
17.587,-0.009766,0.001953,0.972900,2.122137,-0.061069,0.396947,0.005638,-0.015791,1.007142,0.563720,0.645146,-0.114202,41.559,2.794,3.117,33.2110,-11.1927,29.7248,45.9544,37.3582,-10.0136,35.6469,52.5985,15.005,16.666,-0.321,0.231,14.298,24.960,100665.27,-140.701,1977,3579,4886,1602,2909
17.707,0.006104,0.005127,0.954590,2.183206,-0.061069,0.366412,0.021565,-0.012671,0.988977,0.625597,0.646161,-0.145173,41.574,2.797,3.106,33.3027,-11.1009,29.8165,46.0579,37.4703,-9.9066,35.7612,52.7354,14.809,16.488,-0.305,0.133,14.291,24.960,100665.44,-140.712,1963,3565,4872,1602,2909
17.827,-0.018066,0.006836,0.984131,2.305344,-0.076336,0.335878,-0.002506,-0.010914,1.018342,0.745795,0.628458,-0.174662,41.539,2.816,3.120,33.3027,-11.2844,29.8165,46.1024,37.4692,-10.1184,35.7602,52.7742,15.112,16.785,-0.283,0.217,14.303,24.960,100665.27,-140.701,1975,3580,4886,1605,2911
17.947,0.004639,0.005615,0.963379,2.183206,-0.030534,0.351145,0.020130,-0.012331,0.997687,0.623819,0.674462,-0.159482,41.542,2.819,3.114,33.3027,-11.1927,29.8165,46.0801,37.4697,-10.0125,35.7607,52.7547,14.961,16.647,-0.280,0.139,14.306,24.960,100665.87,-140.749,1967,3569,4874,1602,2907
18.067,0.003418,0.002686,0.968262,2.213740,0.000000,0.305344,0.018835,-0.015332,1.002497,0.655646,0.706621,-0.205980,41.565,2.822,3.113,33.3945,-11.1927,29.7248,46.0872,37.5757,-10.0124,35.6524,52.7568,14.920,16.603,-0.292,0.083,14.303,24.960,100665.61,-140.728,1974,3577,4885,1603,2911
18.187,-0.006836,0.007568,0.967285,2.198473,-0.091603,0.427481,0.008716,-0.010136,1.001626,0.640379,0.615018,-0.083842,41.565,2.829,3.113,33.3027,-11.2844,29.7248,46.0432,37.4664,-10.1189,35.6492,52.6971,15.114,16.794,-0.280,0.095,14.327,24.960,100665.44,-140.712,1965,3569,4874,1604,2909
18.307,0.000000,-0.001709,0.958984,2.244275,0.030534,0.396947,0.015276,-0.019431,0.993289,0.685534,0.736343,-0.114028,41.554,2.831,3.120,33.3027,-11.1927,29.8165,46.0801,37.4697,-10.0125,35.7607,52.7547,14.961,16.655,-0.320,0.071,14.336,24.960,100665.44,-140.712,1977,3579,4886,1602,2909
18.427,-0.008301,0.001221,0.960205,2.259542,-0.061069,0.335878,0.007059,-0.016291,0.994564,0.701610,0.645755,-0.175533,41.568,2.838,3.125,33.3027,-11.1009,29.6330,45.9393,37.4647,-9.9076,35.5391,52.5813,14.813,16.512,-0.320,0.094,14.326,24.960,100665.37,-140.706,1963,3565,4872,1602,2909
18.547,-0.013428,0.004150,0.970703,2.213740,-0.061069,0.305344,0.002033,-0.013442,1.005006,0.655808,0.645755,-0.206067,41.568,2.843,3.137,33.3027,-11.1927,29.8165,46.0801,37.4697,-10.0125,35.7607,52.7547,14.961,16.662,-0.314,0.151,14.322,24.960,100665.20,-140.696,1975,3580,4886,1605,2911
18.667,0.007080,0.005127,0.968018,2.305344,0.061069,0.351145,0.022566,-0.012989,1.002262,0.746441,0.766674,-0.159743,41.551,2.859,3.138,33.3027,-11.1009,29.8165,46.0579,37.4703,-9.9066,35.7612,52.7354,14.809,16.533,-0.286,0.073,14.313,24.960,100665.20,-140.696,1967,3569,4874,1602,2907
18.787,-0.016113,-0.000488,0.967529,2.305344,-0.091603,0.335878,-0.000789,-0.017938,1.001832,0.746280,0.613800,-0.174923,41.548,2.869,3.149,33.3027,-11.1927,29.8165,46.0801,37.4697,-10.0125,35.7607,52.7547,14.961,16.680,-0.307,0.148,14.316,24.960,100665.20,-140.696,1974,3577,4885,1603,2911
18.907,-0.006348,0.002930,0.963623,2.167939,-0.137405,0.351145,0.009067,-0.014711,0.997954,0.611139,0.570842,-0.160876,41.589,2.867,3.142,33.3027,-11.1927,29.7248,46.0208,37.4669,-10.0130,35.6497,52.6776,14.963,16.677,-0.318,0.142,14.318,24.970,100665.30,-140.701,1965,3569,4874,1604,2909
19.027,0.011963,-0.000732,0.961670,2.274809,0.015267,0.335878,0.027272,-0.018851,0.995900,0.717039,0.722294,-0.175620,41.571,2.872,3.133,33.3027,-11.1927,29.7248,46.0208,37.4669,-10.0130,35.6497,52.6776,14.963,16.683,-0.343,0.028,14.318,24.970,100664.64,-140.648,1977,3579,4886,1602,2909
19.147,-0.012695,-0.000488,0.968018,2.290076,0.000000,0.351145,0.002630,-0.018045,1.002300,0.730851,0.705199,-0.159569,41.545,2.880,3.150,33.3027,-11.1009,29.7248,45.9985,37.4675,-9.9071,35.6501,52.6583,14.811,16.544,-0.348,0.094,14.310,24.970,100664.73,-140.654,1963,3565,4872,1602,2909
19.267,-0.002197,0.003418,0.971191,2.229008,-0.015267,0.320611,0.013245,-0.014504,1.005429,0.669621,0.689730,-0.190016,41.542,2.885,3.153,33.3027,-11.1009,29.8165,46.0579,37.4703,-9.9066,35.7612,52.7354,14.809,16.550,-0.335,0.077,14.297,24.970,100664.23,-140.611,1975,3580,4886,1605,2911
19.387,-0.003906,-0.000244,0.968994,2.244275,-0.076336,0.412214,0.011429,-0.018071,1.003227,0.685211,0.629067,-0.098587,41.548,2.887,3.151,33.3945,-11.2844,29.8165,46.1688,37.5779,-10.1178,35.7630,52.8532,15.069,16.792,-0.363,0.072,14.315,24.970,100663.73,-140.569,1967,3569,4874,1602,2907
19.507,-0.018311,0.006348,0.981445,2.152672,0.015267,0.396947,-0.002768,-0.011338,1.015681,0.594093,0.721278,-0.114115,41.556,2.886,3.176,33.3027,-11.1927,29.8165,46.0801,37.4697,-10.0125,35.7607,52.7547,14.961,16.688,-0.342,0.173,14.320,24.970,100663.99,-140.590,1974,3576,4885,1602,2911
19.627,0.000244,0.007324,0.964844,2.183206,-0.091603,0.335878,0.015786,-0.010528,0.999174,0.624789,0.614611,-0.175271,41.559,2.890,3.167,33.3027,-11.2844,29.7248,46.0432,37.4664,-10.1189,35.6492,52.6971,15.114,16.831,-0.325,0.124,14.328,24.970,100663.50,-140.553,1965,3569,4874,1604,2909
19.747,-0.016357,0.005859,0.974609,2.274809,-0.030534,0.366412,-0.000841,-0.011734,1.008902,0.715907,0.675071,-0.144476,41.551,2.903,3.184,33.3945,-11.1927,29.7248,46.0872,37.5757,-10.0124,35.6524,52.7568,14.920,16.653,-0.296,0.200,14.328,24.970,100663.00,-140.511,1977,3579,4886,1602,2909
19.867,-0.010010,0.001465,0.971191,2.259542,-0.061069,0.381679,0.005377,-0.016236,1.005447,0.699993,0.643725,-0.128861,41.539,2.909,3.190,33.3027,-11.1009,29.6330,45.9393,37.4647,-9.9076,35.5391,52.5813,14.813,16.555,-0.298,0.219,14.323,24.980,100662.92,-140.500,1963,3565,4872,1602,2909
19.987,-0.004395,0.000000,0.974121,2.290076,0.045802,0.351145,0.010956,-0.017924,1.008306,0.731982,0.752422,-0.160178,41.565,2.916,3.202,33.3945,-11.1927,29.7248,46.0872,37.5757,-10.0124,35.6524,52.7568,14.920,16.660,-0.313,0.212,14.322,24.980,100661.92,-140.416,1975,3580,4886,1605,2911
20.107,-0.008545,-0.001709,0.961670,2.198473,-0.137405,0.335878,0.006735,-0.019247,0.995986,0.640703,0.569622,-0.175620,41.571,2.911,3.197,33.3945,-11.1927,29.7248,46.0872,37.5757,-10.0124,35.6524,52.7568,14.920,16.656,-0.347,0.213,14.317,24.980,100662.36,-140.453,1967,3569,4874,1602,2907
20.227,-0.006592,0.002197,0.968994,2.274809,-0.015267,0.381679,0.008812,-0.015553,1.003264,0.717200,0.691963,-0.129905,41.574,2.920,3.204,33.3945,-11.1009,29.7248,46.0650,37.5762,-9.9065,35.6529,52.7375,14.769,16.520,-0.331,0.211,14.307,24.980,100662.19,-140.442,1974,3577,4885,1603,2911
20.347,0.000488,0.004150,0.982422,2.244275,-0.152672,0.412214,0.015972,-0.014090,1.016538,0.685373,0.552934,-0.098674,41.551,2.926,3.187,33.3027,-11.1927,29.8165,46.0801,37.4697,-10.0125,35.7607,52.7547,14.961,16.718,-0.323,0.149,14.315,24.980,100662.25,-140.447,1965,3569,4874,1604,2909
20.467,-0.013916,0.000488,0.969482,2.183206,-0.015267,0.351145,0.001440,-0.017065,1.003765,0.624950,0.691150,-0.160091,41.562,2.921,3.203,33.3027,-11.1927,29.8165,46.0801,37.4697,-10.0125,35.7607,52.7547,14.961,16.711,-0.344,0.209,14.316,24.980,100662.25,-140.447,1977,3579,4886,1602,2909
20.587,0.009521,0.005371,0.962158,2.198473,-0.122137,0.351145,0.025004,-0.012687,0.996454,0.639894,0.583874,-0.159917,41.556,2.924,3.179,33.3945,-11.1009,29.7248,46.0650,37.5762,-9.9065,35.6529,52.7375,14.769,16.529,-0.320,0.083,14.303,24.980,100662.19,-140.442,1963,3565,4872,1602,2909
20.707,-0.003906,0.001953,0.975586,2.152672,-0.061069,0.335878,0.011503,-0.016016,1.009772,0.594254,0.645146,-0.175271,41.559,2.917,3.178,33.3027,-11.1009,29.8165,46.0579,37.4703,-9.9066,35.7612,52.7354,14.809,16.571,-0.331,0.075,14.294,24.980,100662.62,-140.474,1975,3580,4886,1605,2911
20.827,-0.010986,-0.001221,0.970947,2.290076,-0.076336,0.335878,0.004324,-0.018890,1.005184,0.732629,0.631098,-0.175794,41.577,2.923,3.184,33.3027,-11.1927,29.8165,46.0801,37.4697,-10.0125,35.7607,52.7547,14.961,16.717,-0.353,0.117,14.295,24.980,100662.95,-140.506,1967,3569,4874,1602,2907
20.947,-0.003906,0.000000,0.970459,2.198473,0.015267,0.335878,0.011438,-0.017859,1.004679,0.640541,0.722091,-0.175533,41.568,2.920,3.192,33.2110,-11.2844,29.8165,46.0362,37.3604,-10.1190,35.7574,52.6952,15.155,16.898,-0.386,0.119,14.307,24.990,100663.55,-140.553,1974,3577,4885,1603,2911
21.067,-0.020996,-0.003174,0.978027,2.152672,-0.167939,0.274809,-0.005729,-0.020712,1.012219,0.594578,0.538682,-0.236514,41.565,2.908,3.198,33.3945,-11.1009,29.7248,46.0650,37.5762,-9.9065,35.6529,52.7375,14.769,16.512,-0.414,0.209,14.284,24.990,100663.05,-140.511,1965,3569,4874,1604,2909
21.187,-0.012939,0.003662,0.976074,2.137405,-0.122137,0.305344,0.002518,-0.014060,1.010314,0.578341,0.583265,-0.205457,41.548,2.902,3.200,33.3027,-11.3761,29.8165,46.1250,37.4686,-10.2243,35.7598,52.7938,15.263,16.978,-0.423,0.245,14.295,24.990,100662.71,-140.484,1977,3579,4886,1602,2909
21.307,-0.007568,0.005371,0.973389,2.213740,-0.015267,0.320611,0.007933,-0.012445,1.007648,0.655161,0.690744,-0.190451,41.556,2.907,3.208,33.2110,-11.1927,29.7248,45.9544,37.3582,-10.0136,35.6469,52.5985,15.005,16.738,-0.395,0.249,14.289,24.990,100662.97,-140.506,1963,3565,4872,1602,2909
21.427,-0.011230,-0.000732,0.978516,2.122137,0.000000,0.351145,0.004107,-0.018558,1.012680,0.563720,0.706214,-0.160004,41.559,2.894,3.222,33.3027,-11.1927,29.8165,46.0801,37.4697,-10.0125,35.7607,52.7547,14.961,16.683,-0.421,0.279,14.286,24.990,100662.81,-140.495,1975,3580,4886,1605,2911
21.547,0.004639,0.002197,0.963867,2.183206,-0.045802,0.335878,0.020034,-0.015760,0.998137,0.624789,0.660413,-0.175271,41.559,2.891,3.213,33.3027,-11.1927,29.7248,46.0208,37.4669,-10.0130,35.6497,52.6776,14.963,16.680,-0.418,0.191,14.280,24.990,100663.07,-140.516,1967,3569,4874,1602,2907
21.667,-0.012695,0.004883,0.970947,2.213740,0.076336,0.366412,0.002787,-0.012735,1.005251,0.655323,0.782550,-0.144737,41.559,2.896,3.237,33.3027,-11.1927,29.7248,46.0208,37.4669,-10.0130,35.6497,52.6776,14.963,16.679,-0.392,0.246,14.279,24.990,100662.74,-140.490,1974,3577,4885,1603,2911
21.787,0.007812,0.002930,0.954834,2.229008,-0.045802,0.366412,0.023213,-0.014922,0.989190,0.671075,0.661022,-0.144998,41.568,2.900,3.223,33.3027,-11.1927,29.7248,46.0208,37.4669,-10.0130,35.6497,52.6776,14.963,16.685,-0.384,0.139,14.279,24.990,100662.41,-140.458,1965,3569,4874,1604,2909
21.907,0.002930,0.009766,0.958252,2.244275,-0.030534,0.335878,0.018528,-0.008020,0.992661,0.685696,0.675477,-0.175184,41.556,2.913,3.217,33.3945,-11.1927,29.7248,46.0872,37.5757,-10.0124,35.6524,52.7568,14.920,16.653,-0.327,0.079,14.275,25.000,100662.84,-140.495,1977,3579,4886,1602,2909
22.027,-0.011963,0.010010,0.979736,2.183206,-0.030534,0.351145,0.003680,-0.007817,1.013996,0.624304,0.675071,-0.159743,41.551,2.919,3.228,33.3027,-11.1009,29.8165,46.0579,37.4703,-9.9066,35.7612,52.7354,14.809,16.562,-0.279,0.129,14.269,25.000,100662.67,-140.479,1963,3565,4872,1602,2909
22.147,-0.001709,0.006592,0.959473,2.244275,0.000000,0.274809,0.013802,-0.011089,0.993860,0.685534,0.705808,-0.236166,41.554,2.929,3.230,33.3027,-11.1927,29.8165,46.0801,37.4697,-10.0125,35.7607,52.7547,14.961,16.711,-0.264,0.108,14.267,25.000,100662.67,-140.479,1975,3580,4886,1605,2911
22.267,-0.007080,0.005371,0.974609,2.106870,-0.076336,0.366412,0.008423,-0.012485,1.008854,0.548776,0.630285,-0.144911,41.565,2.921,3.230,33.3027,-11.1927,29.7248,46.0208,37.4669,-10.0130,35.6497,52.6776,14.963,16.700,-0.276,0.120,14.278,25.000,100662.91,-140.500,1967,3569,4874,1602,2907
22.387,-0.008301,0.002686,0.969238,2.259542,-0.030534,0.366412,0.007117,-0.015021,1.003518,0.701771,0.676493,-0.145085,41.571,2.928,3.237,33.3945,-11.1009,29.7248,46.0650,37.5762,-9.9065,35.6529,52.7375,14.769,16.519,-0.275,0.141,14.274,25.000,100662.56,-140.474,1974,3577,4885,1603,2911
22.507,-0.003662,0.000000,0.958740,2.259542,-0.015267,0.351145,0.011661,-0.017612,0.993081,0.701124,0.690947,-0.160004,41.559,2.931,3.240,33.3945,-11.1927,29.8165,46.1464,37.5785,-10.0119,35.7635,52.8338,14.919,16.666,-0.301,0.132,14.278,25.000,100662.06,-140.432,1965,3569,4874,1604,2909
22.627,-0.016113,-0.000732,0.977295,2.122137,-0.045802,0.396947,-0.000778,-0.018393,1.011495,0.564205,0.661022,-0.114464,41.568,2.918,3.254,33.3027,-11.1927,29.7248,46.0208,37.4669,-10.0130,35.6497,52.6776,14.963,16.693,-0.344,0.206,14.289,25.000,100661.56,-140.389,1977,3579,4886,1602,2909
22.747,-0.000488,0.005615,0.977539,2.305344,0.000000,0.305344,0.015028,-0.012491,1.011725,0.747573,0.707027,-0.206154,41.571,2.933,3.255,33.3027,-11.1009,29.8165,46.0579,37.4703,-9.9066,35.7612,52.7354,14.809,16.567,-0.308,0.167,14.274,25.000,100661.83,-140.410,1963,3565,4872,1602,2909
22.867,-0.021729,0.003174,0.975586,2.198473,-0.030534,0.290076,-0.006287,-0.014289,1.009868,0.640056,0.675680,-0.221073,41.559,2.934,3.277,33.3027,-11.1009,29.7248,45.9985,37.4675,-9.9071,35.6501,52.6583,14.811,16.559,-0.304,0.274,14.262,25.000,100661.66,-140.395,1975,3580,4886,1605,2911
22.987,-0.001465,0.000244,0.974365,2.213740,-0.076336,0.305344,0.013894,-0.017768,1.008536,0.655646,0.630285,-0.205980,41.565,2.932,3.269,33.3945,-11.1009,29.8165,46.1243,37.5790,-9.9061,35.7639,52.8145,14.768,16.519,-0.320,0.224,14.247,25.000,100661.66,-140.395,1967,3569,4874,1602,2907
23.107,-0.003174,0.000000,0.964600,2.335878,0.045802,0.351145,0.012160,-0.017753,0.998877,0.778107,0.752828,-0.160353,41.571,2.945,3.279,33.3027,-11.1009,29.7248,45.9985,37.4675,-9.9071,35.6501,52.6583,14.811,16.568,-0.324,0.207,14.242,25.000,100662.27,-140.447,1974,3577,4885,1603,2911
23.227,-0.011475,0.003174,0.968262,2.290076,-0.122137,0.351145,0.003955,-0.014422,1.002571,0.732629,0.585296,-0.160527,41.577,2.955,3.277,33.3945,-11.1927,29.8165,46.1464,37.5785,-10.0119,35.7635,52.8338,14.919,16.678,-0.316,0.230,14.244,25.000,100662.09,-140.432,1965,3569,4874,1604,2909
23.347,0.002930,0.000000,0.965088,2.274809,-0.015267,0.442748,0.018265,-0.017936,0.999332,0.717847,0.692776,-0.069186,41.586,2.960,3.272,33.3027,-11.1009,29.7248,45.9985,37.4675,-9.9071,35.6501,52.6583,14.811,16.582,-0.329,0.164,14.250,25.000,100661.59,-140.389,1977,3579,4886,1602,2909
23.467,-0.007324,0.005127,0.968994,2.198473,-0.091603,0.366412,0.008162,-0.012601,1.003295,0.640864,0.615627,-0.145173,41.574,2.962,3.270,33.3945,-11.1927,29.7248,46.0872,37.5757,-10.0124,35.6524,52.7568,14.920,16.681,-0.318,0.167,14.254,25.000,100661.27,-140.363,1963,3565,4872,1602,2909
23.587,0.000732,0.008545,0.973633,2.229008,-0.015267,0.335878,0.016324,-0.009511,1.007881,0.670429,0.690744,-0.175184,41.556,2.971,3.267,33.3027,-11.1927,29.7248,46.0208,37.4669,-10.0130,35.6497,52.6776,14.963,16.733,-0.287,0.124,14.258,25.000,100661.43,-140.379,1975,3580,4886,1605,2911
23.707,0.010742,0.003418,0.956543,2.244275,-0.198473,0.427481,0.026159,-0.014554,0.990872,0.686828,0.508960,-0.084191,41.577,2.975,3.231,33.3027,-11.1927,29.8165,46.0801,37.4697,-10.0125,35.7607,52.7547,14.961,16.749,-0.295,-0.005,14.274,25.000,100661.77,-140.405,1967,3569,4874,1602,2907
23.827,-0.016357,0.004639,0.964844,2.259542,0.030534,0.290076,-0.000893,-0.012744,0.999226,0.701286,0.736952,-0.221160,41.562,2.984,3.255,33.3027,-11.1927,29.7248,46.0208,37.4669,-10.0130,35.6497,52.6776,14.963,16.747,-0.288,0.096,14.275,25.000,100662.09,-140.432,1974,3577,4885,1603,2911
23.947,-0.003662,0.003906,0.971191,2.229008,0.000000,0.274809,0.011794,-0.013974,1.005441,0.671075,0.706824,-0.236601,41.568,2.987,3.259,33.3945,-11.1927,29.7248,46.0872,37.5757,-10.0124,35.6524,52.7568,14.920,16.704,-0.290,0.094,14.270,25.000,100662.43,-140.458,1965,3569,4874,1604,2909
24.067,-0.003418,0.003174,0.964355,2.152672,-0.030534,0.274809,0.012005,-0.014566,0.998668,0.595063,0.676696,-0.236776,41.574,2.980,3.260,33.3027,-11.1009,29.8165,46.0579,37.4703,-9.9066,35.7612,52.7354,14.809,16.605,-0.299,0.085,14.258,25.000,100663.43,-140.543,1977,3579,4886,1602,2909
24.187,-0.018799,0.002197,0.983887,2.213740,-0.030534,0.335878,-0.003370,-0.015529,1.018059,0.655646,0.676086,-0.175445,41.565,2.980,3.278,33.3945,-11.1927,29.8165,46.1464,37.5785,-10.0119,35.7635,52.8338,14.919,16.698,-0.311,0.184,14.261,25.000,100664.43,-140.627,1963,3565,4872,1602,2909
24.307,-0.015625,0.002930,0.973145,2.229008,0.000000,0.305344,-0.000194,-0.014654,1.007420,0.672208,0.708247,-0.206677,41.589,2.983,3.296,33.3027,-11.1927,29.8165,46.0801,37.4697,-10.0125,35.7607,52.7547,14.961,16.740,-0.315,0.254,14.260,25.000,100664.77,-140.659,1975,3580,4886,1605,2911
24.427,-0.026123,0.000732,0.978760,2.274809,0.000000,0.320611,-0.010745,-0.016675,1.013005,0.716715,0.706621,-0.190713,41.565,2.989,3.325,33.3027,-11.1927,29.8165,46.0801,37.4697,-10.0125,35.7607,52.7547,14.961,16.738,-0.325,0.387,14.260,25.000,100664.43,-140.627,1967,3569,4874,1602,2907
24.547,-0.003906,-0.001709,0.969238,2.274809,0.030534,0.335878,0.011388,-0.019542,1.003455,0.718657,0.739595,-0.176493,41.601,2.991,3.333,33.3027,-11.1927,29.8165,46.0801,37.4697,-10.0125,35.7607,52.7547,14.961,16.738,-0.353,0.356,14.258,25.000,100664.16,-140.606,1974,3577,4885,1603,2911
24.667,-0.001221,0.002686,0.974121,2.213740,-0.030534,0.335878,0.014206,-0.015327,1.008317,0.655485,0.675883,-0.175358,41.562,2.991,3.329,33.3027,-11.1927,29.7248,46.0208,37.4669,-10.0130,35.6497,52.6776,14.963,16.736,-0.354,0.302,14.256,25.000,100664.50,-140.632,1965,3569,4874,1604,2909
24.787,-0.011230,0.000000,0.974365,2.274809,-0.106870,0.366412,0.004120,-0.017735,1.008579,0.716877,0.599953,-0.144998,41.568,2.996,3.329,33.3027,-11.1009,29.8165,46.0579,37.4703,-9.9066,35.7612,52.7354,14.809,16.602,-0.356,0.312,14.249,25.000,100664.83,-140.664,1977,3579,4886,1602,2909
24.907,0.010742,0.007812,0.953857,2.244275,-0.122137,0.305344,0.026279,-0.010100,0.988257,0.687151,0.585703,-0.206503,41.583,3.005,3.300,33.4862,-11.1009,29.6330,46.0725,37.6822,-9.9064,35.5447,52.7400,14.729,16.521,-0.307,0.163,14.230,25.000,100664.83,-140.664,1963,3565,4872,1602,2909
25.027,-0.005859,0.005615,0.969482,2.244275,-0.137405,0.335878,0.009642,-0.012165,1.003777,0.685211,0.567998,-0.174923,41.548,3.011,3.290,33.3945,-11.1009,29.7248,46.0650,37.5762,-9.9065,35.6529,52.7375,14.769,16.576,-0.285,0.149,14.223,25.000,100664.33,-140.622,1975,3580,4886,1605,2911
25.147,-0.000244,0.004395,0.973145,2.259542,-0.061069,0.320611,0.015229,-0.013624,1.007363,0.701286,0.645349,-0.190626,41.562,3.018,3.283,33.3945,-11.1927,29.7248,46.0872,37.5757,-10.0124,35.6524,52.7568,14.920,16.724,-0.283,0.111,14.226,25.000,100664.33,-140.622,1967,3569,4874,1602,2907
25.277,-0.004150,-0.003418,0.968994,2.137405,0.015267,0.396947,0.011095,-0.021239,1.003198,0.580443,0.723310,-0.114987,41.586,3.007,3.297,33.3027,-11.1009,29.7248,45.9985,37.4675,-9.9071,35.6501,52.6583,14.811,16.615,-0.348,0.113,14.232,25.000,100664.83,-140.664,1972,3576,4875,1604,2903
25.397,-0.015869,0.000488,0.970703,2.244275,-0.091603,0.320611,-0.000512,-0.017036,1.004982,0.686990,0.616034,-0.191149,41.580,3.009,3.304,33.3027,-11.2844,29.7248,46.0432,37.4664,-10.1189,35.6492,52.6971,15.114,16.897,-0.372,0.185,14.244,25.000,100664.83,-140.664,1969,3575,4885,1606,2916
25.517,-0.001953,0.003418,0.969238,2.091603,-0.045802,0.396947,0.013486,-0.014468,1.003495,0.533509,0.660819,-0.114377,41.565,2.995,3.300,33.3027,-11.1927,29.8165,46.0801,37.4697,-10.0125,35.7607,52.7547,14.961,16.749,-0.382,0.154,14.252,25.000,100664.50,-140.632,1979,3581,4888,1602,2909
25.637,-0.004150,0.006592,0.964355,2.274809,-0.137405,0.351145,0.011369,-0.011126,0.998704,0.716715,0.569216,-0.160178,41.565,3.006,3.288,33.2110,-11.1927,29.7248,45.9544,37.3582,-10.0136,35.6469,52.5985,15.005,16.802,-0.349,0.131,14.257,25.000,100663.23,-140.527,1967,3571,4883,1604,2916
25.757,-0.014893,0.008545,0.970703,2.259542,-0.015267,0.351145,0.000693,-0.009004,1.005055,0.701286,0.691150,-0.160091,41.562,3.018,3.303,33.3027,-11.1927,29.8165,46.0801,37.4697,-10.0125,35.7607,52.7547,14.961,16.768,-0.305,0.199,14.260,25.000,100663.06,-140.516,1975,3580,4886,1605,2911
25.877,-0.000244,0.007080,0.965088,2.213740,-0.091603,0.366412,0.015291,-0.010764,0.999415,0.656293,0.615830,-0.145260,41.577,3.023,3.292,33.3027,-11.1927,29.7248,46.0208,37.4669,-10.0130,35.6497,52.6776,14.963,16.770,-0.286,0.150,14.267,25.000,100662.84,-140.495,1971,3575,4884,1604,2913
