t_s,ax_raw_g,ay_raw_g,az_raw_g,gx_raw_dps,gy_raw_dps,gz_raw_dps,ax_g,ay_g,az_g,gx_dps,gy_dps,gz_dps,mpu_temp_c,roll_deg,pitch_deg,bx_uT,by_uT,bz_uT,mag_uT,bx_cal_uT,by_cal_uT,bz_cal_uT,mag_cal_uT,yaw_flat_deg,yaw_tilt_deg,mahony_roll_deg,mahony_pitch_deg,mahony_yaw_deg,bmp_temp_c,pressure_pa,altitude_m
23805.537,-0.002930,0.013672,0.969727,2.305344,-0.137405,0.366412,0.012799,-0.004194,1.004083,0.769734,0.597546,-0.157128,41.971,3.947,2.939,-22.0183,-4.2202,-4.1284,22.7961,-29.0852,-2.4834,-6.9693,30.0114,175.120,176.114,0.410,-0.087,175.099,23.800,100682.91,-150.573
23805.647,-0.003418,0.011719,0.971924,2.351145,-0.106870,0.381679,0.012260,-0.006181,1.006240,0.817178,0.630156,-0.142761,42.001,3.949,2.934,-21.9266,-4.1284,-3.9450,22.6579,-28.9703,-2.3760,-6.7440,29.8397,175.311,176.276,0.409,-0.085,175.116,23.800,100683.27,-150.604
23805.757,-0.012939,0.015137,0.966309,2.290076,-0.061069,0.351145,0.002824,-0.002371,1.000761,0.756109,0.675957,-0.173295,42.001,3.949,2.945,-21.9266,-4.2202,-3.9450,22.6748,-28.9709,-2.4819,-6.7445,29.8489,175.104,176.071,0.430,-0.019,175.106,23.810,100683.53,-150.625
23805.867,-0.008789,0.010254,0.973145,2.351145,-0.122137,0.335878,0.006849,-0.007521,1.007460,0.817343,0.615096,-0.188653,42.004,3.949,2.944,-22.1101,-4.1284,-4.0367,22.8516,-29.1905,-2.3776,-6.8606,30.0800,175.343,176.317,0.418,0.007,175.121,23.810,100684.06,-150.668
23805.977,-0.002686,0.011230,0.960938,2.427481,-0.045802,0.366412,0.012959,-0.006453,0.995360,0.892529,0.689979,-0.157488,41.983,3.959,2.945,-22.0183,-4.1284,-4.0367,22.7628,-29.0818,-2.3771,-6.8578,29.9739,175.327,176.307,0.422,-0.000,175.136,23.810,100683.83,-150.652
23806.087,-0.022705,0.007080,0.911621,2.396947,0.030534,0.396947,-0.007268,-0.008971,0.946608,0.862651,0.767145,-0.127313,41.995,3.962,2.978,-22.0183,-4.3119,-3.9450,22.7808,-29.0802,-2.5883,-6.7477,29.9648,174.914,175.883,0.413,0.133,175.110,23.820,100683.56,-150.631
23806.197,0.025635,0.011719,0.959961,2.259542,-0.122137,0.381679,0.041294,-0.006747,0.994265,0.725247,0.614473,-0.142581,41.995,3.953,2.937,-21.9266,-4.1284,-4.0367,22.6741,-28.9731,-2.3765,-6.8550,29.8677,175.311,176.292,0.398,-0.076,175.126,23.820,100683.49,-150.620
23806.307,0.009033,0.009277,0.954346,2.381679,-0.030534,0.320611,0.024612,-0.008597,0.988762,0.847877,0.706700,-0.203920,42.004,3.956,2.926,-22.0183,-4.3119,-4.0367,22.7968,-29.0830,-2.5888,-6.8588,29.9927,174.913,175.896,0.395,-0.147,175.091,23.820,100683.16,-150.594
23806.417,-0.009766,0.009033,0.971191,2.366412,0.015267,0.351145,0.005835,-0.008672,1.005519,0.831953,0.751670,-0.173025,41.992,3.956,2.942,-22.1101,-4.1284,-4.0367,22.8516,-29.1905,-2.3776,-6.8606,30.0800,175.343,176.319,0.381,-0.085,175.109,23.820,100683.26,-150.604
23806.527,-0.010010,0.010742,0.968750,2.381679,-0.061069,0.351145,0.005634,-0.006903,1.003121,0.847548,0.675750,-0.173205,41.998,3.961,2.949,-21.8349,-4.2202,-3.9450,22.5861,-28.8621,-2.4813,-6.7417,29.7427,175.086,176.060,0.387,-0.037,175.097,23.820,100683.86,-150.652
23806.637,0.000732,0.004639,0.957275,2.320611,-0.091603,0.335878,0.016184,-0.013065,0.991656,0.785823,0.644385,-0.188112,41.986,3.951,2.941,-22.0183,-4.2202,-3.9450,22.7636,-29.0796,-2.4825,-6.7473,29.9552,175.121,176.085,0.345,-0.065,175.089,23.830,100684.12,-150.673
23806.747,-0.009277,0.013672,0.973633,2.305344,-0.091603,0.366412,0.006458,-0.004098,1.007978,0.771541,0.645631,-0.158118,42.004,3.951,2.944,-22.0183,-4.3119,-4.1284,22.8132,-29.0858,-2.5893,-6.9698,30.0211,174.913,175.911,0.369,-0.027,175.062,23.830,100684.38,-150.699
23806.857,-0.009521,0.009033,0.961914,2.335878,-0.091603,0.412214,0.006062,-0.008478,0.996337,0.800761,0.643970,-0.111596,41.980,3.948,2.948,-21.9266,-4.1284,-4.1284,22.6906,-28.9759,-2.3770,-6.9661,29.8961,175.310,176.306,0.354,0.008,175.085,23.830,100684.22,-150.684
23806.967,-0.011230,0.011475,0.975830,2.305344,-0.030534,0.427481,0.004447,-0.006288,1.010141,0.770555,0.705454,-0.096509,41.986,3.945,2.960,-21.9266,-4.1284,-3.9450,22.6579,-28.9703,-2.3760,-6.7440,29.8397,175.311,176.276,0.354,0.057,175.107,23.830,100683.88,-150.657
23807.077,-0.023682,0.015137,0.968262,2.381679,0.045802,0.320611,-0.007916,-0.002108,1.002744,0.845906,0.780544,-0.202840,41.968,3.955,2.994,-22.0183,-4.1284,-3.9450,22.7467,-29.0790,-2.3766,-6.7468,29.9459,175.328,176.291,0.387,0.186,175.117,23.830,100683.72,-150.641
23807.187,-0.008789,0.008789,0.970947,2.305344,-0.091603,0.366412,0.006804,-0.008939,1.005271,0.771212,0.645216,-0.157938,41.998,3.949,2.996,-22.0183,-4.1284,-4.0367,22.7628,-29.0818,-2.3771,-6.8578,29.9739,175.327,176.305,0.366,0.193,175.131,23.830,100683.81,-150.652
23807.297,-0.016113,0.012207,0.978027,2.412214,-0.122137,0.305344,-0.000412,-0.005465,1.012345,0.877426,0.613850,-0.218646,41.986,3.958,3.003,-22.0183,-4.1284,-4.0367,22.7628,-29.0818,-2.3771,-6.8578,29.9739,175.327,176.307,0.381,0.241,175.137,23.830,100683.81,-150.652
23807.407,-0.012939,0.012695,0.965820,2.412214,-0.076336,0.305344,0.002754,-0.004802,1.000254,0.876769,0.658822,-0.218286,41.974,3.968,3.010,-21.9266,-4.3119,-4.1284,22.7247,-28.9770,-2.5887,-6.9670,29.9150,174.895,175.901,0.409,0.270,175.098,23.830,100683.81,-150.652
23807.517,-0.008057,0.015625,0.965820,2.351145,-0.091603,0.366412,0.007720,-0.002010,1.000260,0.818164,0.646670,-0.158569,42.018,3.975,3.011,-21.9266,-4.1284,-4.0367,22.6741,-28.9731,-2.3765,-6.8550,29.8677,175.311,176.298,0.434,0.263,175.114,23.830,100683.48,-150.620
23807.627,-0.005615,0.010742,0.970215,2.351145,-0.030534,0.396947,0.010032,-0.007059,1.004550,0.817178,0.706492,-0.127494,42.001,3.975,3.016,-21.9266,-4.1284,-3.9450,22.6579,-28.9703,-2.3760,-6.7440,29.8397,175.311,176.283,0.424,0.248,175.132,23.830,100683.66,-150.636
23807.737,-0.009033,0.013916,0.971680,2.335878,-0.045802,0.320611,0.006706,-0.003819,1.006046,0.801254,0.690394,-0.203469,41.989,3.978,3.022,-21.9266,-4.1284,-4.0367,22.6741,-28.9731,-2.3765,-6.8550,29.8677,175.311,176.299,0.435,0.254,175.139,23.830,100683.66,-150.636
23807.847,-0.014648,0.015869,0.976074,2.366412,-0.106870,0.366412,0.001153,-0.001801,1.010441,0.831953,0.629533,-0.157758,41.992,3.986,3.028,-22.1101,-4.2202,-4.0367,22.8683,-29.1911,-2.4835,-6.8611,30.0893,175.137,176.123,0.465,0.288,175.133,23.830,100683.66,-150.636
23807.957,-0.013916,0.011230,0.972168,2.274809,0.015267,0.396947,0.001748,-0.006377,1.006527,0.740185,0.751463,-0.127133,41.989,3.979,3.047,-22.2018,-4.2202,-3.9450,22.9411,-29.2971,-2.4836,-6.7529,30.1677,175.154,176.120,0.452,0.328,175.133,23.830,100683.48,-150.620
23808.067,-0.010498,0.007568,0.966064,2.290076,-0.030534,0.366412,0.005052,-0.010006,1.000435,0.755781,0.706076,-0.157848,41.995,3.969,3.056,-22.2936,-4.3119,-3.9450,23.0469,-29.4064,-2.5901,-6.7561,30.2835,174.966,175.929,0.424,0.338,175.110,23.830,100683.32,-150.610
23808.177,-0.002197,0.012207,0.958740,2.335878,-0.061069,0.320611,0.013471,-0.005442,0.993192,0.801911,0.675957,-0.203829,42.001,3.970,3.052,-22.2936,-4.3119,-4.1284,23.0790,-29.4119,-2.5910,-6.9782,30.3393,174.966,175.959,0.431,0.290,175.083,23.830,100683.88,-150.652
23808.287,0.007812,0.010010,0.955078,2.290076,-0.198473,0.396947,0.023413,-0.007845,0.989500,0.755781,0.538137,-0.127313,41.995,3.963,3.022,-22.2936,-4.3119,-4.0367,23.0628,-29.4092,-2.5905,-6.8672,30.3112,174.966,175.942,0.417,0.168,175.068,23.830,100683.55,-150.625
23808.397,-0.023682,0.014648,0.972412,2.351145,-0.137405,0.229008,-0.007922,-0.002686,1.006847,0.816686,0.598999,-0.295162,41.992,3.969,3.035,-22.2018,-4.4037,-4.0367,22.9915,-29.3010,-2.6958,-6.8648,30.2149,174.743,175.727,0.450,0.266,175.013,23.840,100683.98,-150.662
23808.507,-0.004395,0.009766,0.971436,2.412214,-0.091603,0.290076,0.011227,-0.008097,1.005743,0.877918,0.645008,-0.234184,41.995,3.975,3.031,-22.2936,-4.4037,-4.0367,23.0801,-29.4097,-2.6964,-6.8676,30.3211,174.762,175.743,0.449,0.238,174.972,23.840,100683.98,-150.662
23808.617,-0.021973,0.013184,0.977783,2.290076,-0.122137,0.290076,-0.006245,-0.004316,1.012140,0.755288,0.613850,-0.233913,41.986,3.972,3.044,-22.2018,-4.3119,-4.0367,22.9741,-29.3004,-2.5900,-6.8644,30.2050,174.949,175.930,0.454,0.318,174.956,23.840,100684.15,-150.678
23808.727,0.003662,0.011963,0.956299,1.709924,-0.656489,0.259542,0.019319,-0.005800,0.990746,0.175135,0.079499,-0.264448,41.986,3.904,2.969,-22.2018,-4.3119,-4.0367,22.9741,-29.3004,-2.5900,-6.8644,30.2050,174.949,175.913,0.384,0.169,174.937,23.840,100684.15,-150.678
23808.837,0.035156,0.029785,0.944092,3.984733,1.526718,0.167939,0.051297,0.011399,0.978691,2.449944,2.262705,-0.356051,41.986,4.104,3.094,-22.1101,-4.1284,-4.0367,22.8516,-29.1905,-2.3776,-6.8606,30.0800,175.343,176.356,0.672,0.069,174.952,23.840,100683.98,-150.662
23808.947,0.012939,0.011230,0.948486,2.244275,-0.198473,0.366412,0.028563,-0.006627,0.982964,0.709979,0.538137,-0.157848,41.995,4.090,3.057,-22.0183,-4.2202,-3.9450,22.7636,-29.0796,-2.4825,-6.7473,29.9552,175.121,176.119,0.626,-0.063,174.969,23.840,100683.48,-150.620
23809.057,0.039062,0.011230,0.899658,3.297710,0.824427,19.557251,0.054600,-0.006312,0.934519,1.762429,1.559793,19.033531,41.977,4.191,3.097,-22.1101,-4.3119,-3.9450,22.8694,-29.1889,-2.5889,-6.7505,30.0710,174.931,175.953,0.700,-0.277,177.075,23.840,100683.25,-150.599
23809.167,-0.178467,0.028320,1.079590,1.740458,-0.412214,3.480916,-0.162142,0.013063,1.113773,0.205670,0.323774,2.956926,41.986,4.143,3.235,-22.2018,-4.7706,-2.8440,22.8860,-29.2670,-3.1133,-5.4233,29.9276,173.928,174.752,0.779,0.698,177.080,23.840,100682.84,-150.567
23809.277,0.042236,-0.012451,1.009033,3.618321,1.770992,-3.129771,0.057303,-0.032457,1.042517,2.084189,2.507811,-3.654121,41.998,4.249,3.378,-22.4771,-5.0459,-2.2018,23.1415,-29.5753,-3.4294,-4.6559,30.1353,173.386,174.111,0.779,0.561,176.296,23.850,100683.05,-150.583
23809.387,-0.082275,0.057617,1.134766,2.793893,-0.045802,-3.343511,-0.065016,0.038449,1.168211,1.259105,0.690186,-3.867501,41.986,4.337,3.449,-23.0275,-5.4128,1.3761,23.6951,-30.1211,-3.8381,-0.3443,30.3666,172.738,172.804,1.033,0.933,175.484,23.850,100683.20,-150.599
23809.497,0.069092,-0.027588,1.059326,3.648855,-11.816793,-3.450382,0.083824,-0.049447,1.092017,2.114724,-11.079975,-3.974732,41.998,4.427,2.097,-23.3945,-5.4128,3.1193,24.2143,-30.5029,-3.8315,1.7541,30.7926,172.841,172.594,0.852,-0.865,174.725,23.860,100683.23,-150.599
23809.607,0.009033,0.038086,0.939453,7.374046,-2.473282,3.145038,0.025398,0.020544,0.974303,5.839258,-1.737294,2.621048,41.986,4.992,1.838,-24.0367,-3.9450,5.2294,24.9133,-31.1907,-2.1307,4.2958,31.5571,176.092,175.402,1.544,-1.131,175.144,23.860,100683.36,-150.610
23809.717,0.016846,0.018799,0.966797,3.145038,1.557252,1.145038,0.032716,0.000437,1.001140,1.611400,2.294693,0.620418,42.006,5.066,2.012,-24.1284,-4.0367,5.4128,25.0554,-31.2944,-2.2362,4.5146,31.6973,175.913,175.177,1.561,-0.961,175.283,23.870,100683.03,-150.583
23809.827,0.184570,-0.005859,0.930664,-5.511450,-2.091603,-2.442748,0.199694,-0.028205,0.964357,-7.045581,-1.354784,-2.967098,41.998,4.172,1.591,-24.1284,-3.7615,5.5046,25.0326,-31.2899,-1.9181,4.6270,31.6883,176.492,175.870,0.459,-2.276,175.078,23.870,100683.23,-150.599
23809.937,-0.075928,0.003662,1.025635,9.038168,9.801527,-3.832061,-0.060387,-0.013345,1.059657,7.503380,10.537515,-4.356051,41.986,4.883,2.761,-23.8532,-3.9450,4.5872,24.6085,-30.9928,-2.1328,3.5241,31.2653,176.063,175.498,1.175,-0.502,174.728,23.880,100683.19,-150.599
23810.047,0.226318,0.028320,0.556885,12.198473,12.732824,-1.236641,0.241738,0.012883,0.594584,10.664342,13.469643,-1.760991,41.998,5.960,3.715,-23.5780,-4.3119,3.8532,24.2768,-30.6912,-2.5583,2.6424,30.9108,175.235,174.715,2.360,-1.337,174.601,23.890,100682.95,-150.578
23810.157,-0.052246,-0.007568,1.001953,2.381679,0.106870,0.351145,-0.037063,-0.024740,1.036000,0.847384,0.843481,-0.173115,41.995,5.904,3.773,-23.5780,-4.4954,3.9450,24.3247,-30.6896,-2.7696,2.7525,30.9370,174.843,174.304,2.045,-0.872,174.599,23.890,100682.48,-150.536
23810.267,-0.022705,0.010254,0.975098,2.290076,-0.045802,0.274809,-0.007065,-0.007168,1.009458,0.756274,0.691432,-0.249721,42.004,5.860,3.780,-23.5780,-4.4954,3.8532,24.3100,-30.6924,-2.7701,2.6415,30.9301,174.843,174.330,1.859,-0.655,174.586,23.900,100683.11,-150.588
23810.377,-0.005371,0.013672,0.964600,2.320611,-0.030534,0.381679,0.010349,-0.004014,0.999020,0.786480,0.706284,-0.142671,41.998,5.823,3.768,-23.5780,-4.4954,3.9450,24.3247,-30.6896,-2.7696,2.7525,30.9370,174.843,174.311,1.717,-0.570,174.587,23.910,100682.77,-150.562
23810.487,-0.000732,0.011475,0.966553,2.351145,-0.076336,0.381679,0.014929,-0.006386,1.000910,0.817343,0.660898,-0.142851,42.004,5.787,3.747,-23.6697,-4.4954,3.8532,24.3990,-30.8011,-2.7707,2.6387,31.0378,174.860,174.355,1.579,-0.528,174.590,23.910,100682.97,-150.578
23810.597,-0.003418,0.008057,0.962891,2.351145,-0.122137,0.274809,0.012140,-0.009649,0.997265,0.818329,0.616344,-0.250262,42.021,5.748,3.725,-23.5780,-4.4954,3.8532,24.3100,-30.6924,-2.7701,2.6415,30.9301,174.843,174.339,1.436,-0.478,174.580,23.910,100682.91,-150.573
23810.707,-0.007324,0.009277,0.968018,2.335878,-0.061069,0.305344,0.008277,-0.008428,1.002369,0.801747,0.675750,-0.219007,41.998,5.710,3.714,-23.5780,-4.4037,3.8532,24.2932,-30.6918,-2.6642,2.6419,30.9203,175.039,174.538,1.316,-0.402,174.597,23.920,100683.27,-150.604
23810.817,-0.002197,0.004150,0.959473,2.351145,-0.106870,0.442748,0.013245,-0.013518,0.993839,0.817178,0.630156,-0.081692,42.001,5.669,3.692,-23.5780,-4.5872,3.9450,24.3419,-30.6901,-2.8755,2.7520,30.9472,174.647,174.129,1.175,-0.373,174.584,23.920,100683.16,-150.594
23810.927,-0.012939,0.008057,0.976807,2.412214,-0.030534,0.427481,0.002643,-0.009680,1.011082,0.879398,0.707947,-0.097591,42.021,5.639,3.692,-23.6697,-4.5872,3.8532,24.4161,-30.8017,-2.8765,2.6382,31.0480,174.665,174.172,1.082,-0.270,174.574,23.920,100683.27,-150.604
23811.037,0.002686,0.008545,0.960693,2.381679,-0.030534,0.335878,0.018254,-0.009287,0.995067,0.846727,0.705246,-0.188022,41.983,5.607,3.673,-23.6697,-4.4954,3.8532,24.3990,-30.8011,-2.7707,2.6387,31.0378,174.860,174.370,0.999,-0.278,174.578,23.920,100682.77,-150.562
23811.147,0.023926,0.015869,0.953369,2.488550,0.000000,-13.480916,0.039690,-0.002404,0.987790,0.955569,0.738273,-14.005898,42.018,5.595,3.633,-23.5780,-4.1284,4.1284,24.2901,-30.6817,-2.3452,2.9764,30.9148,175.629,175.074,0.997,-0.392,173.144,23.930,100682.70,-150.557
23811.257,0.018311,0.011230,0.951904,2.748092,0.381679,-11.312977,0.033940,-0.006853,0.986322,1.213632,1.118083,-11.837147,41.992,5.606,3.641,-23.5780,-4.0367,4.4954,24.3398,-30.6699,-2.2374,3.4210,30.9412,175.828,175.186,1.015,-0.417,172.125,23.930,100683.06,-150.583
23811.367,0.003174,0.008301,0.967285,2.564885,0.259542,0.320611,0.018747,-0.009687,1.001586,1.030918,0.996568,-0.203829,42.001,5.594,3.654,-23.6697,-3.9450,4.5872,24.4307,-30.7753,-2.1317,3.5297,31.0503,176.038,175.379,1.000,-0.374,172.519,23.930,100682.66,-150.551
23811.477,-0.003662,0.010498,0.963867,2.335878,-0.106870,0.381679,0.011967,-0.007221,0.998257,0.801747,0.629948,-0.142671,41.998,5.560,3.636,-23.6697,-3.8532,4.5872,24.4161,-30.7747,-2.0258,3.5302,31.0427,176.234,175.579,0.974,-0.335,172.897,23.940,100682.92,-150.573
23811.587,-0.065918,0.007568,1.011475,3.114504,-0.473282,0.305344,-0.050292,-0.009416,1.045634,1.580701,0.263951,-0.219187,42.004,5.609,3.646,-23.5780,-4.0367,4.4954,24.3398,-30.6699,-2.2374,3.4210,30.9412,175.828,175.185,1.017,0.037,173.181,23.950,100682.95,-150.578
23811.697,0.023193,0.017578,0.929688,2.870229,0.335878,0.351145,0.038963,-0.000161,0.964374,1.336591,1.073319,-0.173475,42.006,5.641,3.643,-23.5780,-3.9450,4.4037,24.3079,-30.6722,-2.1320,3.3105,30.9239,176.024,175.400,1.083,-0.100,173.461,23.960,100682.74,-150.557
23811.807,0.024902,0.018555,0.939453,3.343511,0.778626,0.351145,0.040717,0.000556,0.974040,1.809216,1.515237,-0.173115,41.995,5.723,3.685,-23.5780,-3.7615,4.5872,24.3128,-30.6654,-1.9193,3.5335,30.9280,176.419,175.743,1.201,-0.183,173.753,23.960,100682.34,-150.525
23811.917,0.035889,-0.027832,0.958984,-2.763359,-7.221374,4.381680,0.050430,-0.046581,0.992867,-4.296997,-6.483932,3.857059,42.006,5.092,2.855,-23.6697,-3.7615,4.5872,24.4018,-30.7742,-1.9199,3.5307,31.0355,176.430,175.836,0.324,-1.196,174.448,23.970,100682.80,-150.562
23812.027,-0.057861,0.016602,1.022217,2.152672,-7.160306,1.404580,-0.041960,-0.000840,1.056315,0.620514,-6.420992,0.879147,42.033,5.056,2.151,-23.4862,-3.7615,4.3119,24.1732,-30.5651,-1.9202,3.2032,30.7924,176.405,175.874,0.366,-1.520,174.752,23.980,100682.73,-150.557
23812.137,0.045654,0.069336,0.947998,4.229008,-3.145038,2.717557,0.062920,0.050582,0.982891,2.696192,-2.406557,2.192486,42.021,5.305,1.775,-23.3028,-3.3028,3.5780,23.8061,-30.3671,-1.3934,2.3228,30.4877,177.373,176.972,0.952,-2.023,175.266,23.990,100682.86,-150.567
23812.247,0.043945,-0.008545,0.975830,-4.473282,3.145038,12.534351,0.059062,-0.027880,1.009688,-6.006263,3.883311,12.009370,42.018,4.520,2.091,-23.3945,-2.7523,4.0367,23.8992,-30.4584,-0.7563,2.8780,30.6035,178.578,178.148,-0.009,-1.749,176.955,23.990,100683.11,-150.588
23812.357,-0.048828,-0.003418,0.917480,-0.656489,5.786260,5.465649,-0.033679,-0.018859,0.952427,-2.189469,6.524533,4.940668,42.018,4.170,2.793,-23.6697,-2.1101,4.6789,24.2198,-30.7611,-0.0136,3.6501,30.9769,179.975,179.477,-0.353,-0.613,177.827,24.000,100683.28,-150.604
23812.467,-0.009033,0.051270,0.969482,0.335878,-2.641221,8.183207,0.007756,0.033595,1.004234,-1.197760,-1.903780,7.658586,42.006,3.996,2.524,-24.2202,-1.9266,6.9725,25.2774,-31.3425,0.2064,6.4101,31.9919,180.377,179.555,-0.192,-0.799,178.945,24.010,100683.23,-150.599
23812.577,0.080078,-0.023926,1.107422,27.664122,7.251908,-10.320611,0.095001,-0.047135,1.139598,26.130648,7.989558,-10.845322,42.009,6.686,3.239,-25.1376,-2.5688,9.4495,26.9776,-32.3584,-0.5279,9.3767,33.6937,179.065,177.089,2.460,-0.333,177.782,24.020,100683.33,-150.610
23812.687,-0.068359,0.022217,0.955078,1.374046,0.702290,-4.412214,-0.052421,0.006526,0.989975,-0.159099,1.440355,-4.937105,42.015,6.543,3.390,-25.5046,-2.8440,10.7339,27.8171,-32.7560,-0.8412,10.9186,34.5380,178.529,176.289,2.213,0.218,177.239,24.020,100683.12,-150.594
23812.797,0.005615,0.035156,0.965332,1.786260,1.175573,2.305344,0.021944,0.017151,0.999902,0.254101,1.914886,1.779911,42.033,6.459,3.504,-25.9633,-2.6606,13.6697,29.4624,-33.2091,-0.6174,14.4585,36.2253,178.935,176.030,2.136,0.260,177.510,24.030,100683.66,-150.636
23812.907,0.038086,0.070801,0.951660,2.274809,-0.534351,6.702290,0.055398,0.052182,0.986565,0.743309,0.205795,6.176496,42.045,6.470,3.392,-26.4220,-2.7523,15.5963,30.8049,-33.6947,-0.7163,16.7757,37.6466,178.782,175.444,2.325,-0.125,178.208,24.040,100683.61,-150.631
23813.017,0.059326,-0.026855,0.972168,3.419847,-1.114504,-3.099237,0.073921,-0.046554,1.005814,1.888512,-0.374150,-3.625121,42.048,6.492,3.200,-26.6055,-2.4771,16.6055,31.4600,-33.8797,-0.3947,17.9929,38.3632,179.333,175.773,1.985,-0.599,177.801,24.050,100683.38,-150.615
23813.127,1.043945,0.274414,0.185059,3.007634,5.175572,-1.740458,1.065713,0.243913,0.225164,1.475805,5.915302,-2.266071,42.039,7.467,2.319,-27.0642,-2.2018,18.5321,32.8749,-34.3630,-0.0701,20.3120,39.9174,179.883,175.380,3.538,-5.935,177.563,24.060,100683.00,-150.583
23813.237,0.151855,0.035645,0.870361,1.954198,-0.198473,0.381679,0.168039,0.015545,0.905234,0.422040,0.540840,-0.143753,42.033,7.382,2.121,-27.1560,-2.2018,18.7156,33.0540,-34.4661,-0.0697,20.5312,40.1180,179.884,175.406,3.322,-6.378,177.610,24.060,100682.94,-150.578
23813.347,0.080322,0.014404,0.908936,2.366412,-0.015267,0.320611,0.095970,-0.004508,0.943538,0.834419,0.724254,-0.204912,42.036,7.319,2.040,-27.2477,-2.2018,18.7156,33.1294,-34.5749,-0.0703,20.5285,40.2100,179.884,175.462,3.037,-6.235,177.672,24.070,100682.97,-150.578
23813.457,0.087646,0.024170,0.912598,2.274809,0.122137,0.396947,0.103577,0.004974,0.947223,0.742815,0.861659,-0.128576,42.036,7.259,1.968,-27.2477,-2.6606,18.8073,33.2149,-34.5749,-0.5992,20.6371,40.2701,179.007,174.597,2.806,-6.141,177.668,24.080,100683.09,-150.588
23813.567,0.054199,0.015625,0.927246,2.366412,0.015267,0.381679,0.069912,-0.002942,0.961793,0.834254,0.754581,-0.143753,42.033,7.200,1.926,-27.3394,-2.6606,18.7156,33.2385,-34.6865,-0.6002,20.5233,40.3078,179.009,174.675,2.563,-5.841,177.675,24.080,100682.75,-150.562
23813.677,0.026123,0.018555,0.954102,2.320611,0.000000,0.305344,0.041964,0.000205,0.988531,0.788617,0.739521,-0.220179,42.036,7.141,1.919,-27.2477,-2.6606,18.8073,33.2149,-34.5749,-0.5992,20.6371,40.2701,179.007,174.670,2.368,-5.384,177.677,24.090,100682.55,-150.541
23813.787,0.017822,0.010498,0.957275,2.259542,-0.076336,0.335878,0.033441,-0.007688,0.991632,0.726890,0.662353,-0.189284,42.024,7.068,1.913,-27.2477,-2.7523,18.8073,33.2224,-34.5755,-0.7051,20.6367,40.2720,178.832,174.538,2.133,-4.932,177.676,24.100,100682.84,-150.567
23813.897,-0.003418,0.012695,0.970703,2.305344,-0.045802,0.320611,0.012285,-0.005178,1.005042,0.773679,0.694136,-0.205093,42.042,7.004,1.936,-27.3394,-2.7523,18.8073,33.2977,-34.6842,-0.7057,20.6339,40.3640,178.834,174.592,1.952,-4.390,177.679,24.100,100683.27,-150.604
23814.007,-0.006104,0.010498,0.967773,2.366412,-0.152672,0.305344,0.009532,-0.007237,1.002134,0.833925,0.586225,-0.219908,42.027,6.946,1.950,-27.2477,-2.5688,18.8073,33.2077,-34.5744,-0.4933,20.6376,40.2684,179.183,174.961,1.804,-3.902,177.712,24.110,100683.30,-150.604
23814.117,-0.013184,0.010742,0.978271,2.320611,-0.045802,0.381679,0.002477,-0.007018,1.012559,0.788782,0.693928,-0.143934,42.039,6.884,1.983,-27.4312,-2.7523,18.7156,33.3214,-34.7958,-0.7067,20.5201,40.4020,178.837,174.700,1.655,-3.412,177.726,24.110,100683.50,-150.620
23814.227,-0.014648,0.017822,0.973877,2.290076,-0.091603,0.366412,0.001204,0.000201,1.008285,0.757918,0.647710,-0.159020,42.033,6.828,2.011,-27.3394,-2.6606,18.8073,33.2902,-34.6837,-0.5998,20.6344,40.3620,179.009,174.868,1.575,-2.972,177.752,24.120,100683.40,-150.615
23814.337,-0.012939,0.012695,0.968750,2.320611,-0.061069,0.305344,0.002759,-0.004866,1.003154,0.789276,0.679285,-0.220541,42.048,6.771,2.041,-27.3394,-2.5688,18.7156,33.2313,-34.6859,-0.4944,20.5238,40.3061,179.183,175.098,1.484,-2.586,177.786,24.120,100683.16,-150.594
23814.447,-0.015869,0.012939,0.966309,2.320611,-0.030534,0.412214,-0.000168,-0.004486,1.000754,0.788946,0.709403,-0.113490,42.042,6.716,2.077,-27.1560,-2.6606,18.8073,33.1397,-34.4662,-0.5986,20.6399,40.1782,179.005,174.900,1.397,-2.222,177.816,24.120,100683.09,-150.588
23814.557,-0.011475,0.006836,0.969727,2.305344,-0.091603,0.351145,0.004061,-0.010790,1.004056,0.774337,0.649168,-0.174920,42.054,6.652,2.101,-27.2477,-2.6606,18.7156,33.1631,-34.5777,-0.5997,20.5261,40.2157,179.006,174.974,1.280,-1.931,177.840,24.120,100683.19,-150.599
23814.667,-0.012695,0.011719,0.974609,2.381679,-0.076336,0.335878,0.002987,-0.005976,1.008942,0.848534,0.661729,-0.189013,42.015,6.604,2.127,-27.3394,-2.6606,18.8073,33.2902,-34.6837,-0.5998,20.6344,40.3620,179.009,174.995,1.216,-1.663,177.863,24.130,100683.45,-150.620
23814.777,-0.010010,0.011963,0.962891,2.351145,-0.091603,0.381679,0.005658,-0.005555,0.997334,0.819151,0.647918,-0.143843,42.036,6.554,2.148,-27.3394,-2.6606,18.8991,33.3422,-34.6809,-0.5993,20.7454,40.4165,179.010,175.002,1.159,-1.444,177.891,24.130,100683.82,-150.652
23814.887,-0.004150,0.012207,0.971436,2.320611,-0.045802,0.320611,0.011540,-0.005661,1.005765,0.788946,0.694136,-0.205093,42.042,6.501,2.166,-27.2477,-2.6606,18.7156,33.1631,-34.5777,-0.5997,20.5261,40.2157,179.006,175.060,1.104,-1.280,177.911,24.130,100683.72,-150.641
23814.997,0.000244,0.010010,0.963135,2.335878,-0.106870,0.366412,0.015858,-0.007805,0.997509,0.804378,0.633276,-0.159382,42.045,6.449,2.173,-27.3394,-2.7523,18.8073,33.2977,-34.6842,-0.7057,20.6339,40.3640,178.834,174.909,1.036,-1.169,177.923,24.130,100683.38,-150.615
23815.107,-0.007080,0.008789,0.963867,2.305344,-0.061069,0.335878,0.008500,-0.008834,0.998256,0.772528,0.677413,-0.189194,42.021,6.393,2.193,-27.2477,-2.7523,18.8073,33.2224,-34.5755,-0.7051,20.6367,40.2720,178.832,174.925,0.966,-1.019,177.932,24.140,100683.65,-150.636
23815.217,-0.003174,0.010742,0.965576,2.244275,0.015267,0.381679,0.012465,-0.007028,0.999948,0.710965,0.753125,-0.143121,42.012,6.334,2.216,-27.2477,-2.5688,18.8073,33.2077,-34.5744,-0.4933,20.6376,40.2684,179.183,175.314,0.927,-0.901,177.977,24.140,100683.16,-150.594
23815.327,-0.005371,0.010742,0.966797,2.351145,-0.091603,0.335878,0.010270,-0.006992,1.001166,0.819316,0.648127,-0.189735,42.039,6.288,2.230,-27.2477,-2.6606,18.8073,33.2149,-34.5749,-0.5992,20.6371,40.2701,179.007,175.164,0.895,-0.794,178.000,24.140,100683.08,-150.588
23815.437,-0.008057,0.006592,0.967773,2.274809,0.000000,0.396947,0.007469,-0.011089,1.002105,0.741335,0.737650,-0.127764,42.009,6.229,2.256,-27.2477,-2.7523,18.8073,33.2224,-34.5755,-0.7051,20.6367,40.2720,178.832,175.020,0.823,-0.672,178.015,24.140,100683.18,-150.594
23815.547,-0.007324,0.010742,0.959717,2.229008,-0.061069,0.351145,0.008304,-0.006784,0.994169,0.695534,0.676581,-0.173566,42.009,6.172,2.274,-27.2477,-2.7523,18.8991,33.2744,-34.5727,-0.7046,20.7477,40.3266,178.832,175.034,0.783,-0.576,178.026,24.140,100683.34,-150.610
23815.657,-0.008057,0.010742,0.964111,2.290076,-0.106870,0.396947,0.007579,-0.006858,0.998521,0.757589,0.632027,-0.128305,42.027,6.122,2.288,-27.1560,-2.6606,18.8073,33.1397,-34.4662,-0.5986,20.6399,40.1782,179.005,175.245,0.762,-0.490,178.056,24.140,100683.68,-150.636
23815.767,-0.003174,0.009277,0.968994,2.305344,-0.045802,0.366412,0.012430,-0.008567,1.003316,0.773515,0.693928,-0.159201,42.039,6.073,2.303,-27.2477,-2.6606,18.8073,33.2149,-34.5749,-0.5992,20.6371,40.2701,179.007,175.289,0.733,-0.437,178.082,24.140,100683.68,-150.636
23815.877,-0.005859,0.009277,0.969727,2.274809,-0.152672,0.412214,0.009745,-0.008507,1.004054,0.742815,0.586850,-0.113309,42.036,6.022,2.309,-27.2477,-2.7523,18.8073,33.2224,-34.5755,-0.7051,20.6367,40.2720,178.832,175.142,0.696,-0.385,178.097,24.140,100684.28,-150.689
23815.987,-0.015381,0.013184,0.972412,2.320611,-0.091603,0.396947,0.000338,-0.004387,1.006794,0.787301,0.646254,-0.127854,42.012,5.982,2.332,-27.2477,-2.6606,18.8073,33.2149,-34.5749,-0.5992,20.6371,40.2701,179.007,175.343,0.703,-0.272,178.126,24.140,100684.11,-150.673
23816.097,-0.016602,0.011963,0.974365,2.320611,-0.091603,0.366412,-0.000914,-0.005616,1.008721,0.787959,0.647086,-0.158750,42.024,5.941,2.356,-27.1560,-2.6606,18.8073,33.1397,-34.4662,-0.5986,20.6399,40.1782,179.005,175.352,0.700,-0.165,178.147,24.150,100684.38,-150.699
23816.207,-0.015137,0.009277,0.974365,2.366412,-0.061069,0.305344,0.000476,-0.008344,1.008688,0.833432,0.677204,-0.219638,42.018,5.902,2.382,-27.3394,-2.6606,18.8073,33.2902,-34.6837,-0.5998,20.6344,40.3620,179.009,175.402,0.684,-0.074,178.161,24.150,100684.80,-150.731
23816.317,-0.008301,0.011719,0.963623,2.335878,-0.076336,0.351145,0.007362,-0.005863,0.998049,0.803555,0.662769,-0.174197,42.030,5.864,2.397,-27.1560,-2.6606,18.8073,33.1397,-34.4662,-0.5986,20.6399,40.1782,179.005,175.396,0.681,-0.039,178.178,24.150,100684.64,-150.721
23816.427,-0.010498,0.010254,0.968994,2.244275,-0.106870,0.366412,0.005133,-0.007383,1.003360,0.711130,0.631195,-0.158479,42.015,5.815,2.411,-27.3394,-2.6606,18.8991,33.3422,-34.6809,-0.5993,20.7454,40.4165,179.010,175.434,0.659,0.003,178.196,24.150,100685.03,-150.752
23816.537,-0.003906,0.010742,0.964355,2.366412,-0.106870,0.320611,0.011730,-0.006981,0.998743,0.833925,0.632027,-0.204641,42.027,5.781,2.418,-27.2477,-2.7523,18.7156,33.1706,-34.5783,-0.7056,20.5257,40.2176,178.831,175.301,0.646,-0.001,178.194,24.150,100685.30,-150.773
23816.647,-0.004395,0.013672,0.966553,2.290076,-0.030534,0.335878,0.011329,-0.004084,1.000948,0.757096,0.707739,-0.189103,42.018,5.742,2.433,-27.3394,-2.6606,18.8073,33.2902,-34.6837,-0.5998,20.6344,40.3620,179.009,175.496,0.653,0.007,178.209,24.160,100685.56,-150.795
23816.757,-0.000732,0.013916,0.972168,2.320611,-0.045802,0.305344,0.015008,-0.004065,1.006491,0.788124,0.693096,-0.219908,42.027,5.707,2.442,-27.2477,-2.6606,18.8073,33.2149,-34.5749,-0.5992,20.6371,40.2701,179.007,175.502,0.662,-0.011,178.219,24.160,100685.39,-150.784
23816.867,0.000488,0.009277,0.959961,2.412214,-0.030534,0.366412,0.016076,-0.008476,0.994359,0.878411,0.706700,-0.158118,42.004,5.678,2.451,-27.2477,-2.6606,18.8073,33.2149,-34.5749,-0.5992,20.6371,40.2701,179.007,175.520,0.651,-0.033,178.234,24.160,100685.50,-150.789
23816.977,-0.008545,0.010498,0.965820,2.320611,-0.106870,0.290076,0.007087,-0.007125,1.000212,0.786315,0.629740,-0.234184,41.995,5.641,2.461,-27.3394,-2.6606,18.8073,33.2902,-34.6837,-0.5998,20.6344,40.3620,179.009,175.555,0.640,-0.004,178.241,24.160,100685.50,-150.789
23817.087,0.002686,0.012695,0.962158,2.335878,-0.015267,0.320611,0.018374,-0.005166,0.996557,0.802240,0.722174,-0.204010,42.006,5.609,2.469,-27.3394,-2.6606,18.8073,33.2902,-34.6837,-0.5998,20.6344,40.3620,179.009,175.574,0.644,-0.040,178.251,24.160,100685.50,-150.789
23817.197,-0.005127,0.010986,0.970215,2.351145,-0.076336,0.335878,0.010527,-0.006829,1.004550,0.815372,0.658407,-0.187572,41.968,5.577,2.478,-27.3394,-2.6606,18.8073,33.2902,-34.6837,-0.5998,20.6344,40.3620,179.009,175.593,0.638,-0.028,178.262,24.160,100685.50,-150.789
23817.307,-0.000244,0.007812,0.962646,2.320611,-0.030534,0.320611,0.015307,-0.009978,0.997006,0.784673,0.704001,-0.202750,41.965,5.538,2.487,-27.3394,-2.7523,18.8073,33.2977,-34.6842,-0.7057,20.6339,40.3640,178.834,175.438,0.601,-0.044,178.256,24.160,100685.83,-150.821
23817.417,-0.000732,0.011475,0.964355,2.366412,-0.061069,0.335878,0.014925,-0.006338,0.998736,0.830311,0.673260,-0.187393,41.962,5.510,2.493,-27.1560,-2.6606,18.7156,33.0877,-34.4690,-0.5991,20.5289,40.1236,179.004,175.624,0.605,-0.058,178.268,24.160,100685.99,-150.832
23817.527,-0.005371,0.012451,0.969971,2.412214,-0.137405,0.335878,0.010324,-0.005351,1.004324,0.875128,0.595680,-0.186854,41.945,5.488,2.495,-27.2477,-2.8440,18.8073,33.2301,-34.5761,-0.8110,20.6362,40.2743,178.656,175.276,0.602,-0.051,178.251,24.160,100685.39,-150.784
23817.637,-0.006592,0.014160,0.966797,2.305344,-0.045802,0.366412,0.009145,-0.003538,1.001205,0.770227,0.689771,-0.157398,41.980,5.457,2.509,-27.2477,-2.7523,18.8073,33.2224,-34.5755,-0.7051,20.6367,40.2720,178.832,175.472,0.609,-0.027,178.252,24.160,100685.56,-150.795
23817.747,-0.001221,0.010010,0.960205,2.351145,0.000000,0.412214,0.014388,-0.007700,0.994616,0.815372,0.734743,-0.111237,41.968,5.427,2.522,-27.2477,-2.6606,18.8073,33.2149,-34.5749,-0.5992,20.6371,40.2701,179.007,175.668,0.602,-0.033,178.273,24.160,100685.73,-150.810
23817.857,0.001465,0.011230,0.961182,2.381679,-0.076336,0.381679,0.017110,-0.006576,0.995582,0.845414,0.657785,-0.141501,41.959,5.402,2.523,-27.3394,-2.6606,18.8073,33.2902,-34.6837,-0.5998,20.6344,40.3620,179.009,175.696,0.606,-0.065,178.289,24.160,100685.56,-150.795
23817.967,-0.001953,0.014893,0.964111,2.290076,-0.061069,0.366412,0.013800,-0.002879,0.998533,0.753646,0.672845,-0.156679,41.956,5.372,2.529,-27.2477,-2.6606,18.8073,33.2149,-34.5749,-0.5992,20.6371,40.2701,179.007,175.701,0.621,-0.070,178.302,24.150,100684.97,-150.747
23818.077,0.000488,0.007080,0.966309,2.427481,0.015267,0.381679,0.016025,-0.010811,1.000620,0.891708,0.750010,-0.141771,41.968,5.348,2.541,-27.2477,-2.7523,18.8073,33.2224,-34.5755,-0.7051,20.6367,40.2720,178.832,175.536,0.591,-0.081,178.300,24.160,100685.56,-150.795
23818.187,-0.002441,0.010742,0.964111,2.259542,-0.061069,0.381679,0.013195,-0.007017,0.998495,0.722620,0.672223,-0.141142,41.948,5.311,2.547,-27.3394,-2.6606,18.8991,33.3422,-34.6809,-0.5993,20.7454,40.4165,179.010,175.732,0.578,-0.080,178.315,24.160,100685.73,-150.810
23818.297,-0.002441,0.010986,0.972656,2.259542,-0.137405,0.305344,0.013217,-0.006957,1.006954,0.722128,0.595266,-0.217209,41.939,5.275,2.546,-27.2477,-2.7523,18.7156,33.1706,-34.5783,-0.7056,20.5257,40.2176,178.831,175.598,0.559,-0.088,178.306,24.160,100685.73,-150.810
23818.407,-0.008057,0.006836,0.974365,2.366412,-0.091603,0.351145,0.007487,-0.010987,1.008631,0.829490,0.641689,-0.171677,41.948,5.246,2.555,-27.1560,-2.6606,18.8991,33.1919,-34.4634,-0.5982,20.7510,40.2329,179.006,175.745,0.538,-0.054,178.317,24.160,100685.89,-150.826
23818.517,-0.002441,0.013672,0.961182,2.274809,-0.106870,0.381679,0.013272,-0.004023,0.995624,0.736903,0.625179,-0.140604,41.930,5.216,2.556,-27.2477,-2.7523,18.8073,33.2224,-34.5755,-0.7051,20.6367,40.2720,178.832,175.616,0.544,-0.063,178.318,24.160,100685.73,-150.810
23818.627,-0.000977,0.011963,0.966064,2.412214,-0.045802,0.259542,0.014698,-0.005880,1.000433,0.873981,0.685834,-0.262562,41.924,5.199,2.562,-27.2477,-2.6606,18.8991,33.2670,-34.5721,-0.5987,20.7482,40.3247,179.008,175.787,0.561,-0.073,178.320,24.160,100685.83,-150.821
23818.737,0.004639,0.010010,0.967041,2.305344,-0.061069,0.320611,0.020260,-0.008014,1.001354,0.768586,0.672430,-0.202301,41.951,5.169,2.560,-27.2477,-2.7523,18.7156,33.1706,-34.5783,-0.7056,20.5257,40.2176,178.831,175.661,0.542,-0.118,178.313,24.160,100685.66,-150.805
23818.847,0.005371,0.010498,0.963379,2.366412,-0.030534,0.366412,0.021000,-0.007467,0.997731,0.828998,0.702136,-0.156140,41.939,5.146,2.561,-27.3394,-2.7523,18.8073,33.2977,-34.6842,-0.7057,20.6339,40.3640,178.834,175.671,0.536,-0.160,178.313,24.160,100686.09,-150.842
23818.957,0.000732,0.007080,0.965088,2.335878,-0.091603,0.335878,0.016267,-0.010791,0.999411,0.799612,0.642518,-0.187303,41.959,5.117,2.560,-27.2477,-2.6606,18.8073,33.2149,-34.5749,-0.5992,20.6371,40.2701,179.007,175.854,0.515,-0.173,178.324,24.160,100685.92,-150.826
23819.067,0.000000,0.011230,0.958008,2.396947,-0.106870,0.290076,0.015639,-0.006466,0.992448,0.860845,0.627458,-0.233194,41.962,5.100,2.558,-27.2477,-2.8440,18.8073,33.2301,-34.5761,-0.8110,20.6362,40.2743,178.656,175.507,0.514,-0.184,178.302,24.160,100685.86,-150.821
23819.177,-0.002197,0.011475,0.962646,2.320611,0.000000,0.351145,0.013457,-0.006260,0.997051,0.783361,0.732877,-0.171497,41.942,5.076,2.571,-27.2477,-2.6606,18.7156,33.1631,-34.5777,-0.5997,20.5261,40.2157,179.006,175.895,0.523,-0.168,178.317,24.170,100685.62,-150.800
23819.287,0.002686,0.011230,0.963867,2.305344,-0.183206,0.396947,0.018336,-0.006669,0.998234,0.769242,0.551122,-0.126324,41.962,5.049,2.558,-27.2477,-2.5688,18.8073,33.2077,-34.5744,-0.4933,20.6376,40.2684,179.183,176.074,0.535,-0.204,178.349,24.170,100685.52,-150.795
23819.397,0.004395,0.011475,0.965820,2.396947,-0.045802,0.335878,0.020055,-0.006515,1.000161,0.860025,0.687490,-0.186944,41.948,5.034,2.558,-27.3394,-2.7523,18.8073,33.2977,-34.6842,-0.7057,20.6339,40.3640,178.834,175.739,0.538,-0.232,178.343,24.170,100685.29,-150.773
23819.507,0.003174,0.010986,0.954834,2.412214,0.015267,0.381679,0.018801,-0.006731,0.989290,0.875784,0.749181,-0.141412,41.956,5.019,2.566,-27.2477,-2.6606,18.8991,33.2670,-34.5721,-0.5987,20.7482,40.3247,179.008,175.896,0.549,-0.243,178.357,24.180,100685.81,-150.816
23819.617,-0.006592,0.009766,0.963135,2.259542,0.000000,0.396947,0.009015,-0.007855,0.997538,0.722620,0.733292,-0.125875,41.948,4.988,2.583,-27.2477,-2.7523,18.8073,33.2224,-34.5755,-0.7051,20.6367,40.2720,178.832,175.752,0.526,-0.192,178.357,24.180,100685.91,-150.826
23819.727,-0.002686,0.015137,0.962158,2.290076,-0.045802,0.381679,0.013071,-0.002572,0.996606,0.752990,0.687283,-0.141052,41.945,4.966,2.590,-27.2477,-2.7523,18.8073,33.2224,-34.5755,-0.7051,20.6367,40.2720,178.832,175.765,0.543,-0.178,178.355,24.180,100685.41,-150.784
23819.837,-0.000732,0.010010,0.954590,2.335878,0.015267,0.351145,0.014866,-0.007592,0.989057,0.799284,0.748973,-0.171856,41.954,4.944,2.602,-27.3394,-2.7523,18.8073,33.2977,-34.6842,-0.7057,20.6339,40.3640,178.834,175.791,0.530,-0.170,178.350,24.180,100685.77,-150.816
23819.947,-0.004639,0.012939,0.970703,2.335878,-0.030534,0.366412,0.011071,-0.004899,1.005050,0.799941,0.704001,-0.156948,41.965,4.926,2.613,-27.2477,-2.8440,18.8991,33.2821,-34.5733,-0.8105,20.7472,40.3289,178.657,175.593,0.529,-0.143,178.334,24.190,100685.84,-150.821
23820.057,-0.003418,0.013184,0.964111,2.290076,-0.167939,0.427481,0.012287,-0.004547,0.998523,0.754303,0.566804,-0.095969,41.968,4.904,2.608,-27.2477,-2.6606,18.8991,33.2670,-34.5721,-0.5987,20.7482,40.3247,179.008,175.965,0.542,-0.142,178.353,24.190,100685.44,-150.784
23820.167,-0.003174,0.014893,0.968018,2.335878,-0.045802,0.351145,0.012587,-0.002929,1.002404,0.799941,0.688734,-0.172215,41.965,4.889,2.616,-27.2477,-2.6606,18.8991,33.2670,-34.5721,-0.5987,20.7482,40.3247,179.008,175.974,0.568,-0.129,178.362,24.190,100685.04,-150.752
23820.277,-0.000977,0.013184,0.964600,2.351145,-0.061069,0.396947,0.014730,-0.004627,0.998995,0.814715,0.672845,-0.126144,41.956,4.873,2.619,-27.2477,-2.7523,18.8073,33.2224,-34.5755,-0.7051,20.6367,40.2720,178.832,175.820,0.573,-0.134,178.360,24.190,100684.97,-150.747
23820.387,-0.007568,0.013428,0.963867,2.305344,-0.091603,0.320611,0.008143,-0.004180,0.998303,0.768914,0.642311,-0.202480,41.956,4.854,2.627,-27.2477,-2.6606,18.8073,33.2149,-34.5749,-0.5992,20.6371,40.2701,179.007,176.010,0.583,-0.099,178.363,24.200,100684.91,-150.742
23820.497,-0.006348,0.013428,0.978516,2.290076,0.015267,0.412214,0.009390,-0.004531,1.012794,0.753975,0.749595,-0.111057,41.962,4.833,2.644,-27.3394,-2.5688,18.8073,33.2830,-34.6831,-0.4939,20.6348,40.3603,179.184,176.213,0.596,-0.064,178.391,24.200,100684.83,-150.736
23820.607,-0.006836,0.008301,0.969238,2.305344,-0.076336,0.366412,0.008740,-0.009445,1.003566,0.769406,0.658200,-0.156948,41.965,4.809,2.652,-27.3394,-2.7523,18.8073,33.2977,-34.6842,-0.7057,20.6339,40.3640,178.834,175.871,0.560,-0.039,178.382,24.200,100685.27,-150.773
23820.717,-0.011475,0.012451,0.979004,2.366412,-0.122137,0.335878,0.004236,-0.005373,1.013292,0.830803,0.612813,-0.187662,41.971,4.796,2.661,-27.2477,-2.7523,18.8073,33.2224,-34.5755,-0.7051,20.6367,40.2720,178.832,175.865,0.562,0.007,178.371,24.200,100685.66,-150.805
23820.827,-0.010254,0.009766,0.969971,2.351145,-0.061069,0.396947,0.005365,-0.007899,1.004321,0.815372,0.673674,-0.126504,41.968,4.779,2.674,-27.2477,-2.7523,18.8073,33.2224,-34.5755,-0.7051,20.6367,40.2720,178.832,175.875,0.547,0.047,178.368,24.210,100685.76,-150.810
23820.937,-0.002930,0.009766,0.962646,2.290076,-0.229008,0.381679,0.012676,-0.007948,0.997038,0.754139,0.505528,-0.141681,41.965,4.755,2.660,-27.1560,-2.6606,18.8073,33.1397,-34.4662,-0.5986,20.6399,40.1782,179.005,176.057,0.534,0.018,178.378,24.210,100685.36,-150.779
23821.047,-0.006348,0.011719,0.964600,2.335878,-0.091603,0.259542,0.009317,-0.005940,0.999006,0.800105,0.643140,-0.263908,41.968,4.740,2.666,-27.3394,-2.6606,18.8073,33.2902,-34.6837,-0.5998,20.6344,40.3620,179.009,176.090,0.541,0.028,178.375,24.210,100685.62,-150.800
23821.157,-0.018311,0.004883,0.980469,2.290076,-0.091603,0.396947,-0.002812,-0.012782,1.014700,0.754467,0.643347,-0.126593,41.971,4.712,2.685,-27.2477,-2.7523,18.8991,33.2744,-34.5727,-0.7046,20.7477,40.3266,178.832,175.899,0.492,0.114,178.372,24.210,100685.72,-150.810
23821.267,-0.010742,0.010254,0.969482,2.351145,-0.106870,0.381679,0.004889,-0.007386,1.003844,0.814880,0.627250,-0.141501,41.959,4.697,2.693,-27.2477,-2.6606,18.8073,33.2149,-34.5749,-0.5992,20.6371,40.2701,179.007,176.103,0.497,0.140,178.385,24.210,100685.39,-150.784
23821.377,-0.017578,0.010254,0.973389,2.351145,-0.091603,0.320611,-0.001940,-0.007277,1.007742,0.814551,0.642103,-0.202390,41.954,4.683,2.711,-27.2477,-2.6606,18.8073,33.2149,-34.5749,-0.5992,20.6371,40.2701,179.007,176.111,0.502,0.208,178.389,24.220,100685.32,-150.779
23821.487,-0.010986,0.008789,0.968506,2.305344,-0.091603,0.290076,0.004602,-0.008823,1.002865,0.768914,0.642311,-0.233015,41.956,4.662,2.721,-27.3394,-2.6606,18.8991,33.3422,-34.6809,-0.5993,20.7454,40.4165,179.010,176.120,0.492,0.228,178.389,24.220,100685.58,-150.800
23821.597,-0.000244,0.010010,0.962891,2.381679,-0.137405,0.381679,0.015369,-0.007786,0.997269,0.844758,0.595887,-0.141142,41.948,4.651,2.713,-27.2477,-2.7523,18.7156,33.1706,-34.5783,-0.7056,20.5257,40.2176,178.831,175.966,0.488,0.171,178.386,24.220,100685.42,-150.784
23821.707,-0.000732,0.012939,0.967285,2.320611,-0.106870,0.396947,0.014972,-0.004936,1.001649,0.784509,0.627458,-0.126324,41.962,4.637,2.709,-27.3394,-2.7523,18.7156,33.2460,-34.6870,-0.7061,20.5229,40.3098,178.834,175.988,0.497,0.128,178.385,24.220,100685.09,-150.758
23821.817,-0.001709,0.008789,0.963867,2.381679,-0.045802,0.381679,0.013872,-0.008986,0.998231,0.846234,0.689356,-0.141950,41.974,4.625,2.713,-27.2477,-2.8440,18.8073,33.2301,-34.5761,-0.8110,20.6362,40.2743,178.656,175.788,0.478,0.102,178.368,24.220,100685.09,-150.758
23821.927,-0.021240,0.006104,0.981201,2.580153,0.076336,0.274809,-0.005706,-0.011494,1.015451,1.044051,0.810664,-0.248461,41.962,4.632,2.753,-27.2477,-2.6606,18.7156,33.1631,-34.5777,-0.5997,20.5261,40.2157,179.006,176.155,0.486,0.216,178.370,24.220,100684.92,-150.742
23822.037,-0.017090,0.012695,0.977295,2.320611,-0.076336,0.351145,-0.001376,-0.004933,1.011629,0.784509,0.657992,-0.172125,41.962,4.618,2.770,-27.2477,-2.6606,18.8073,33.2149,-34.5749,-0.5992,20.6371,40.2701,179.007,176.147,0.505,0.274,178.379,24.220,100684.75,-150.726
23822.147,-0.003418,0.010742,0.958740,2.366412,-0.061069,0.396947,0.012209,-0.006873,0.993184,0.830803,0.673882,-0.126593,41.971,4.607,2.773,-27.3394,-2.6606,18.8073,33.2902,-34.6837,-0.5998,20.6344,40.3620,179.009,176.166,0.513,0.241,178.392,24.220,100685.15,-150.763
23822.257,-0.105957,0.047607,1.114746,3.007634,1.175573,-2.488550,-0.089018,0.029540,1.148412,1.472024,1.910523,-3.012090,41.971,4.703,3.013,-27.3394,-2.8440,19.0826,33.4616,-34.6764,-0.8101,20.9665,40.5303,178.662,175.691,0.774,0.915,178.061,24.220,100685.08,-150.758
23822.367,0.261719,0.050293,0.829102,7.496183,1.587786,8.793893,0.278251,0.027975,0.864029,5.959918,2.321907,8.270712,41.959,5.289,2.846,-27.1560,-3.1193,19.3578,33.4948,-34.4523,-1.1252,21.3038,40.5226,178.129,174.718,1.522,-0.875,178.930,24.220,100684.75,-150.726
23822.477,0.267090,-0.121582,0.757812,7.251908,-3.587786,32.137405,0.278644,-0.142571,0.791786,5.715971,-2.853251,31.614044,41.965,5.595,2.099,-27.2477,-3.3945,18.8991,33.3337,-34.5767,-1.4458,20.7444,40.3481,177.606,174.153,0.714,-3.234,182.253,24.230,100684.52,-150.710
23822.587,0.108887,0.278076,0.996582,15.160305,-14.992367,12.854961,0.132136,0.256551,1.032701,13.623712,-14.258660,12.331961,41.954,7.231,0.379,-27.4312,-6.1468,17.7982,33.2720,-34.8448,-4.6289,19.3925,40.1454,172.433,168.549,3.139,-5.279,182.604,24.230,100684.70,-150.726
23822.697,0.048828,0.149902,1.024170,24.885496,-40.045803,7.725191,0.068505,0.129440,1.059041,23.349394,-39.311474,7.201920,41.962,9.743,-3.941,-27.6147,-5.8716,15.8716,32.3875,-35.1192,-4.3222,17.0566,39.2807,172.984,168.815,5.725,-9.469,182.019,24.230,100684.97,-150.747
23822.807,0.418701,0.056641,1.090820,4.381680,-30.366413,9.984733,0.435897,0.024215,1.122364,2.844430,-29.633535,9.462090,41.942,9.879,-7.480,-27.5229,-4.8624,16.5138,32.4632,-34.9847,-3.1537,17.8418,39.3980,174.849,170.512,5.159,-14.114,181.934,24.240,100684.91,-150.742
23822.917,-0.040771,0.025635,0.998047,32.458015,48.717556,-38.671757,-0.024657,0.008234,1.032403,30.922571,49.452713,-39.195385,41.974,13.025,-1.972,-27.4312,-3.5780,16.0550,31.9849,-34.8819,-1.6732,17.2960,38.9705,177.254,171.131,8.488,-6.524,177.763,24.240,100684.97,-150.747
23823.027,0.731689,0.290039,0.486328,77.404579,31.465649,-0.793893,0.754413,0.261886,0.524929,75.867821,32.199146,-1.316804,41.951,21.473,0.496,-27.9817,-2.1101,14.6789,31.6685,-35.5670,0.0105,15.6212,38.8463,180.017,170.850,17.942,-7.530,177.798,24.240,100684.47,-150.705
23823.137,-0.068359,0.224121,0.941406,-23.145039,-20.931297,25.145039,-0.046747,0.208797,0.978404,-24.680319,-20.195932,24.621319,41.977,18.623,-1.638,-28.9908,0.4587,11.1927,31.0798,-36.8532,2.9510,11.3844,38.6843,184.578,178.707,14.307,-9.297,179.973,24.240,100684.41,-150.699
23823.247,0.122559,-0.078857,0.808105,-31.190840,-9.480916,-5.618320,0.135396,-0.096820,0.842649,-32.726940,-8.746588,-6.141591,41.962,14.592,-2.729,-28.0734,1.6514,15.4128,32.0686,-35.6300,4.3546,16.5258,39.5166,186.968,180.080,8.616,-10.126,179.495,24.240,100684.50,-150.705
23823.357,-0.041992,0.210449,0.945312,-22.290077,-5.709924,5.755725,-0.020756,0.194288,0.982013,-23.826180,-4.975595,5.232455,41.962,11.955,-3.187,-28.2569,1.6514,14.4954,31.8009,-35.8754,4.3488,15.4099,39.2864,186.912,181.658,6.292,-9.504,180.273,24.250,100684.43,-150.699
23823.467,0.090820,0.144043,0.983398,35.618320,27.633587,-28.519083,0.110262,0.123269,1.018438,34.081398,28.366879,-29.041904,41.948,15.528,-0.189,-28.0734,-0.1835,15.1376,31.8951,-35.6498,2.2357,16.1834,39.2149,183.588,176.509,10.476,-5.587,177.590,24.250,100684.36,-150.694
23823.577,0.084961,0.194336,0.739258,-16.503817,-6.900764,9.893129,0.105382,0.179023,0.777341,-18.040247,-6.166850,9.370038,41.956,13.531,-1.000,-28.2569,-1.1927,11.8349,30.6584,-35.9741,1.0530,12.1756,37.9933,181.677,177.112,8.681,-6.640,178.535,24.250,100684.39,-150.699
23823.687,0.137939,0.244873,0.934814,-23.740458,-12.961832,-10.595420,0.160143,0.223848,0.971115,-25.277380,-12.228540,-11.118241,41.948,10.796,-2.481,-27.9817,-0.7339,12.2936,30.5719,-35.6311,1.5865,12.7414,37.8739,182.549,178.688,6.572,-8.085,177.177,24.260,100684.62,-150.715
23823.797,0.027100,0.117188,1.045410,-8.213740,2.992366,2.610687,0.045889,0.096870,1.079846,-9.750498,3.725865,2.087776,41.951,9.631,-2.078,-27.2477,1.2844,14.7706,31.0203,-34.6732,3.9330,15.7719,38.2943,186.471,182.013,5.497,-7.075,178.055,24.260,100684.72,-150.726
23823.907,-0.217773,0.000488,0.919434,-12.641221,9.221375,8.061069,-0.202525,-0.010202,0.955189,-14.177650,9.955288,7.537978,41.956,7.898,-0.724,-26.5138,2.8440,17.6147,31.9585,-33.7071,5.7520,19.2441,39.2376,189.684,185.138,3.537,-3.997,179.728,24.260,100683.98,-150.662
23824.017,0.229980,0.061035,1.053223,4.167939,15.954199,4.717557,0.247216,0.034776,1.086082,2.630525,16.686869,4.195005,41.939,8.060,0.833,-26.3303,3.3945,18.9908,32.6413,-33.4443,6.3954,20.9180,39.9623,190.826,185.859,4.005,-3.193,181.022,24.260,100683.42,-150.615
23824.127,0.135498,0.045410,1.048096,-21.587786,12.580153,6.961832,0.152276,0.021936,1.081299,-23.125036,13.313030,6.439190,41.942,5.430,2.091,-25.9633,4.4954,20.5505,33.4159,-32.9550,7.6762,22.8223,40.8144,193.112,189.698,1.562,-2.322,182.522,24.270,100683.78,-150.647
23824.237,-0.004639,-0.014404,0.903076,-26.137405,14.671756,13.145039,0.010178,-0.030791,0.937858,-27.675312,15.403805,12.622755,41.930,2.300,3.697,-24.8624,6.0550,24.1284,35.1708,-31.5316,9.5012,27.1940,42.7086,196.769,195.802,-1.225,-0.527,184.754,24.270,100683.71,-150.641
23824.347,0.039307,-0.044434,1.007568,-1.190840,14.503817,-7.618320,0.053467,-0.064335,1.040771,-2.729401,15.235038,-8.140245,41.918,1.889,5.207,-24.3119,7.0642,24.6789,35.3556,-30.8562,10.6721,27.8820,42.9349,199.079,199.088,-0.973,0.690,184.799,24.270,100683.28,-150.604
23824.457,0.023193,-0.019531,0.887451,-1.694656,-6.748092,-1.816794,0.037840,-0.036371,0.922215,-3.233217,-6.016870,-2.338719,41.918,1.458,4.407,-24.2202,7.4312,26.0550,36.3415,-30.7033,11.1032,29.5522,44.0375,199.881,200.072,-0.622,-0.508,185.511,24.280,100682.70,-150.557
23824.567,0.072998,-0.062256,0.993652,18.778625,-4.824428,10.916031,0.086634,-0.082819,1.026668,17.239901,-4.093413,10.394196,41.915,3.194,3.782,-24.2202,6.8807,26.6055,36.6308,-30.6900,10.4707,30.2156,44.3226,198.838,197.052,1.540,-1.616,187.453,24.280,100682.47,-150.536
23824.677,0.001221,-0.020264,0.993408,-2.061069,-8.595420,2.671756,0.016035,-0.038771,1.027170,-3.599302,-7.863785,2.149652,41.924,2.699,2.840,-24.7706,6.9725,25.8716,36.4902,-31.3641,10.5694,29.3110,44.2104,198.623,197.090,1.226,-2.514,188.265,24.280,100682.23,-150.514
23824.787,0.079102,-0.031250,0.962402,4.412214,-4.076336,-0.351145,0.093557,-0.051299,0.996014,2.872670,-3.346355,-0.872533,41.901,2.896,2.316,-24.5872,6.6055,26.5138,36.7579,-31.1294,10.1503,30.0920,44.4701,198.060,196.093,1.515,-3.288,188.671,24.290,100682.60,-150.546
23824.897,0.025146,0.011719,0.991211,24.564886,-6.961832,-10.564885,0.040861,-0.007408,1.025194,23.025997,-6.231025,-11.086631,41.912,5.312,1.552,-25.4128,6.1468,25.0459,36.2062,-32.1555,9.6083,28.2880,43.8920,196.637,192.494,4.226,-3.875,187.831,24.290,100682.86,-150.567
23825.007,0.136230,-0.006348,1.178467,-45.389313,-19.511450,-26.229008,0.151782,-0.032679,1.209815,-46.928040,-18.780436,-26.750843,41.915,0.116,-0.646,-25.5963,5.9633,23.6697,35.3693,-32.4160,9.3884,26.6160,42.9808,196.152,195.925,-1.081,-6.242,185.191,24.290,100682.77,-150.562
23825.117,0.142578,-0.072754,0.844727,38.809162,-17.282442,-17.603054,0.155656,-0.092074,0.878857,37.271091,-16.550600,-18.125248,41.927,4.013,-2.618,-23.3945,5.7798,27.7982,36.7892,-29.6819,9.2114,31.6785,44.3778,197.241,192.627,3.341,-8.579,183.864,24.290,100682.43,-150.536
23825.227,0.153076,0.169678,0.886963,82.290077,12.427481,-1.557252,0.173073,0.149231,0.922958,80.751678,13.158909,-2.079267,41.921,12.820,-1.357,-26.7890,5.2294,23.3028,35.8889,-33.8453,8.5321,26.1318,43.6024,194.149,184.181,13.162,-7.407,184.240,24.290,100682.43,-150.536
23825.337,0.154541,0.213623,0.933838,14.931297,9.694656,7.526718,0.175863,0.192137,0.969768,13.393392,10.426705,7.004435,41.930,14.232,-0.407,-28.3486,5.5046,19.9083,35.0754,-35.7953,8.8227,21.9776,42.9204,193.846,185.004,14.342,-6.776,185.384,24.290,100682.77,-150.562
23825.447,0.077881,0.297363,0.917480,41.755726,8.854961,-0.061069,0.101530,0.278434,0.954751,40.217003,9.585976,-0.582904,41.915,18.607,0.518,-29.1743,5.4128,17.0642,34.2290,-36.8610,8.6972,18.5100,42.1545,193.276,183.645,18.957,-5.646,185.627,24.290,100682.59,-150.546
23825.557,0.090332,0.300781,0.905029,19.664122,7.419847,-3.603053,0.114056,0.281770,0.942404,18.124743,8.150035,-4.124531,41.904,20.522,1.254,-29.8165,5.4128,14.2202,33.4744,-37.7088,8.6787,15.0485,41.5178,192.961,184.370,20.682,-4.752,185.452,24.290,100682.93,-150.573
23825.667,0.076660,0.342041,0.895264,22.931297,3.526718,3.893130,0.101530,0.323643,0.933203,21.391754,4.256698,3.371742,41.901,22.800,1.570,-30.1835,5.3211,13.3028,33.4114,-38.1722,8.5659,13.9266,41.5264,192.648,183.792,22.791,-4.574,185.891,24.290,100683.20,-150.599
23825.777,0.082764,0.380371,0.891602,1.374046,2.122137,-1.893130,0.108709,0.361892,0.929923,-0.164351,2.853566,-2.415144,41.921,22.751,1.722,-30.5505,4.9541,11.4679,33.0059,-38.6652,8.1307,11.6929,41.2048,191.875,184.451,22.570,-4.359,185.619,24.290,100683.86,-150.652
23825.887,0.086426,0.335938,0.911377,-33.053436,1.908397,-0.839695,0.111153,0.316912,0.949045,-34.593143,2.638171,-1.360993,41.898,18.937,1.845,-30.0917,5.3211,12.8440,33.1481,-38.0774,8.5641,13.3742,41.2565,192.676,185.717,18.269,-4.254,185.470,24.290,100683.59,-150.631
23825.997,0.068604,0.266113,0.931396,-43.511452,-3.664122,3.786260,0.091395,0.247136,0.968263,-45.050179,-2.933108,3.264424,41.915,13.987,1.387,-29.5413,5.5963,14.7706,33.4989,-37.3647,8.8950,15.7240,41.5028,193.391,187.452,12.853,-4.767,185.743,24.290,100683.77,-150.647
23826.107,0.067139,0.173828,0.944824,-52.183205,-11.114504,0.076336,0.087349,0.154570,0.980664,-53.723076,-10.384936,-0.444873,41.895,8.096,0.140,-28.2569,5.6881,19.1743,34.6188,-35.7078,9.0313,21.0931,42.4444,194.194,189.507,6.567,-5.911,185.582,24.290,100683.44,-150.620
23826.217,0.107910,0.035400,0.921387,-54.442749,-15.053435,-6.778626,0.124175,0.015444,0.955935,-55.981964,-14.323042,-7.300193,41.906,1.918,-1.555,-25.6881,5.7798,24.6789,36.0878,-32.4952,9.1812,27.8336,43.7600,195.777,193.928,0.103,-7.609,185.029,24.290,100683.70,-150.641
23826.327,0.135010,-0.029053,0.954834,-27.572519,0.244275,-0.809160,0.149518,-0.050523,0.988283,-29.112062,0.974255,-1.330548,41.901,-1.317,-1.591,-24.0367,5.5046,26.9725,36.5456,-30.4699,8.8856,30.6583,44.1282,196.258,197.030,-2.919,-7.682,185.525,24.290,100683.93,-150.657
23826.437,0.124512,-0.048340,0.973389,-22.305344,5.740458,-0.961832,0.138508,-0.069920,1.006508,-23.845543,6.469612,-1.482862,41.889,-3.941,-1.018,-22.3853,5.7798,28.7156,36.8659,-28.4580,9.2224,32.8195,44.4075,197.956,201.540,-4.937,-7.130,186.081,24.290,100684.20,-150.684
23826.547,0.077881,-0.119873,0.968262,-30.412214,19.541985,2.091603,0.089845,-0.140045,1.000959,-31.950939,20.272999,1.569768,41.915,-7.466,1.086,-20.7339,6.6972,29.9083,37.0034,-26.4588,10.2975,34.3179,44.5401,201.266,209.589,-7.833,-4.890,186.973,24.300,100683.95,-150.662
23826.657,0.114014,-0.160645,0.941895,-27.297710,-16.519083,-5.587786,0.124783,-0.181286,0.974300,-28.837254,-15.789103,-6.109174,41.901,-10.636,-0.782,-19.7248,7.0642,30.6422,37.1203,-25.2381,10.7311,35.2387,44.6529,203.035,213.582,-10.143,-7.307,187.725,24.300,100683.82,-150.652
23826.767,0.106201,-0.306152,0.960449,-35.893131,-12.091603,-5.923664,0.112896,-0.327024,0.991287,-37.433167,-11.362243,-6.444784,41.892,-14.823,-2.114,-16.8807,6.4220,33.1193,37.7238,-21.7960,10.0202,38.3198,45.2093,204.690,220.213,-13.835,-8.981,188.488,24.300,100683.59,-150.631
23826.877,0.065186,-0.299561,0.976074,-10.106871,-11.068703,8.122137,0.072091,-0.319605,1.007007,-11.646742,-10.339135,7.600928,41.895,-16.135,-3.265,-15.0459,5.6881,34.5872,38.1445,-19.5813,9.1921,40.1485,45.6050,205.147,222.779,-14.305,-9.901,190.818,24.310,100683.92,-150.657
23826.987,0.111084,-0.327637,0.949463,-20.519083,-11.557252,1.190840,0.117153,-0.348417,0.980183,-22.059937,-10.828924,0.670167,41.877,-18.581,-4.495,-14.4037,5.2294,35.2294,38.4177,-18.8035,8.6700,40.9429,45.8809,204.754,224.591,-16.099,-11.198,192.346,24.310,100683.68,-150.636
23827.097,0.150391,-0.370850,0.873047,-17.786259,3.603053,1.267176,0.155106,-0.391108,0.903955,-19.326294,4.332414,0.746056,41.892,-20.761,-4.117,-12.8440,4.9541,36.2385,38.7652,-16.9260,8.3672,42.2103,46.2408,206.305,229.439,-17.673,-11.105,193.482,24.310,100683.28,-150.604
23827.207,0.191162,-0.387451,0.812500,-12.198473,-1.007634,3.908397,0.195304,-0.407562,0.843683,-13.738998,-0.278893,3.387546,41.883,-22.343,-4.300,-11.1927,4.7706,37.1560,39.0973,-14.9421,8.1704,43.3699,46.5937,208.670,233.680,-18.712,-11.860,195.101,24.320,100683.05,-150.583
23827.317,0.166504,-0.356934,0.885254,42.473282,5.450382,2.274809,0.171636,-0.377908,0.916095,40.932755,6.179123,1.753958,41.883,-17.931,-3.745,-11.3761,4.6789,37.0642,39.0521,-15.1629,8.0630,43.2529,46.5375,208.002,229.927,-13.247,-11.736,196.226,24.320,100683.08,-150.588
23827.427,0.154053,-0.268066,0.932861,56.442749,6.702290,0.946565,0.161777,-0.289685,0.964130,54.902550,7.431444,0.425535,41.889,-11.989,-3.051,-14.8624,4.9541,35.3211,38.6395,-19.3460,8.3500,41.0386,46.1319,203.346,218.003,-6.709,-11.075,196.908,24.330,100683.07,-150.588
23827.537,0.131104,-0.201904,0.936768,70.793892,11.511451,-1.358779,0.140700,-0.222934,0.968746,69.253693,12.240604,-1.879809,41.889,-4.542,-1.832,-19.1743,5.2294,32.2936,37.9193,-24.5469,8.6253,37.2447,45.4325,199.361,204.196,0.562,-9.552,197.055,24.330,100682.67,-150.551
23827.647,0.116455,-0.079590,0.944824,56.229008,8.305344,5.328244,0.129517,-0.100335,0.977974,54.688316,9.033878,4.807482,41.880,1.327,-0.971,-21.3761,5.5963,29.9083,37.1855,-27.2267,9.0230,34.2927,44.7068,198.335,196.480,5.659,-8.340,197.658,24.330,100682.44,-150.536
23827.757,0.105957,0.037842,0.936523,46.748093,1.755725,2.412214,0.122318,0.017614,0.970948,45.208714,2.485913,1.890736,41.904,6.195,-0.828,-24.4954,5.2294,26.6972,36.6076,-31.0237,8.5637,30.3098,44.2096,195.431,189.459,9.634,-7.851,197.431,24.330,100682.53,-150.541
23827.867,0.115967,0.103271,0.958008,58.076336,-1.221374,4.595420,0.134214,0.082319,0.992797,56.535156,-0.493459,4.074925,41.871,12.259,-1.018,-27.0642,4.6789,22.9358,35.7829,-34.1861,7.8932,25.6765,43.4773,193.001,183.733,14.682,-7.832,197.026,24.340,100682.80,-150.562
23827.977,0.126953,0.224121,0.936279,50.900764,0.106870,7.572519,0.148573,0.203369,0.972415,49.360237,0.835611,7.051668,41.883,17.572,-1.077,-28.5321,4.3119,20.6422,35.4792,-35.9979,7.4489,22.8542,43.2856,191.691,180.317,19.049,-7.892,196.618,24.340,100682.62,-150.551
23828.087,0.108887,0.260742,0.914307,47.221375,3.664122,3.587786,0.131499,0.240990,0.951110,45.680523,4.392450,3.067113,41.877,22.429,-0.735,-30.1835,3.8532,16.6972,34.7086,-38.0780,6.8891,18.0273,42.6893,190.255,179.237,22.940,-7.410,195.734,24.340,100682.46,-150.536
23828.197,0.050293,0.364502,0.927979,44.183205,12.549619,6.717557,0.075853,0.346152,0.965921,42.642517,13.278153,6.196795,41.880,26.972,0.627,-31.2844,3.4862,12.2936,33.7935,-39.5191,6.4363,12.6624,41.9943,189.250,179.990,26.782,-5.928,195.589,24.340,100682.56,-150.546
23828.307,0.072998,0.435303,0.859863,20.427481,2.458015,2.748092,0.100436,0.417806,0.899092,18.887119,3.186963,2.227150,41.886,28.967,0.842,-31.3761,3.1193,10.8257,33.3375,-39.6748,6.0047,10.8812,41.5758,188.606,179.976,28.295,-5.650,194.464,24.340,100682.06,-150.504
23828.417,0.170898,0.453125,0.777832,34.335876,-0.381679,-1.572519,0.198701,0.434631,0.817624,32.796497,0.348508,-2.093997,41.904,32.483,0.621,-31.6514,3.1193,8.8991,33.0262,-40.0597,5.9932,8.5412,41.3962,188.509,180.672,31.684,-6.142,192.930,24.340,100681.98,-150.493
23828.527,0.033447,0.463623,0.887451,9.954199,-0.625954,-2.625954,0.061731,0.446661,0.926854,8.413673,0.102787,-3.146806,41.883,33.255,0.551,-31.7431,3.1193,7.7982,32.8354,-40.2019,5.9870,7.2060,41.2791,188.470,181.507,31.834,-5.636,191.531,24.350,100681.98,-150.493
23828.637,0.086670,0.499023,0.866211,-6.290076,-0.366412,2.076336,0.115919,0.481024,0.905928,-7.829947,0.363155,1.555127,41.895,32.305,0.450,-31.8349,3.2110,7.4312,32.8480,-40.3212,6.0905,6.7596,41.3351,188.590,182.184,30.412,-5.778,190.751,24.350,100681.92,-150.488
23828.747,0.091309,0.389893,0.904541,-59.755726,5.786260,-3.923664,0.117547,0.370895,0.942780,-61.295761,6.515620,-4.444784,41.892,25.482,1.011,-31.5596,3.5780,10.1835,33.3544,-39.9090,6.5297,10.1008,41.6820,189.292,182.235,22.505,-5.064,189.705,24.350,100681.95,-150.493
23828.857,0.079590,0.322510,0.944092,-50.000000,-0.442748,-1.099237,0.103997,0.302966,0.981323,-51.541344,0.284961,-1.619642,41.868,19.759,0.905,-31.1009,3.8532,12.8440,33.8686,-39.2826,6.8638,13.3360,42.0486,189.911,182.861,16.040,-5.075,188.817,24.360,100681.88,-150.488
23828.967,0.047119,0.205811,0.938721,-44.931297,-0.427481,-0.992366,0.068220,0.187263,0.975027,-46.471985,0.301054,-1.513129,41.880,14.571,0.841,-29.5413,4.4954,17.8899,34.8274,-37.2766,7.6403,19.4935,42.7541,191.583,183.854,10.135,-4.882,188.184,24.360,100681.70,-150.472
23829.077,0.077148,0.118652,0.962402,-39.038166,-6.122138,3.755725,0.095834,0.098711,0.997477,-40.579018,-5.393809,3.235052,41.877,10.018,0.134,-27.7982,4.9541,21.9266,35.7499,-35.0849,8.2011,24.4342,43.5344,193.157,186.233,5.043,-5.574,188.321,24.370,100681.91,-150.488
23829.187,0.032715,0.029541,0.949707,-56.061069,7.022901,-9.267176,0.048859,0.011103,0.984257,-57.602249,7.750815,-9.787670,41.871,3.622,0.910,-26.8807,4.8624,24.0367,36.3865,-33.9339,8.1117,27.0154,44.1265,193.444,190.799,-1.647,-4.393,187.339,24.370,100682.09,-150.504
23829.297,0.126709,-0.071045,0.940674,-46.335876,-4.564886,-5.435114,0.140006,-0.091989,0.973901,-47.876564,-3.836351,-5.955877,41.880,-1.720,0.315,-23.7615,5.5963,28.0734,37.2027,-30.1096,8.9988,31.9995,44.8501,196.640,198.395,-6.760,-5.358,187.334,24.380,100682.36,-150.525
23829.407,0.036865,-0.115234,0.980469,-35.038166,-2.061069,-3.832061,0.048979,-0.134506,1.013277,-36.578037,-1.331501,-4.353270,41.895,-5.779,0.110,-20.9174,5.7798,30.9174,37.7734,-26.6512,9.2427,35.5289,45.3654,199.127,205.663,-9.935,-5.512,187.747,24.380,100682.22,-150.514
23829.517,0.083496,-0.210205,0.963135,-41.770992,1.572519,-2.152672,0.092902,-0.230457,0.994982,-43.312008,2.300641,-2.673255,41.874,-10.594,0.252,-19.5413,6.0550,31.9266,37.9188,-24.9878,9.5741,36.7936,45.4953,200.964,213.076,-13.890,-5.626,188.506,24.390,100681.92,-150.488
23829.627,0.076172,-0.294434,0.927002,-32.595421,-4.763359,2.320611,0.083135,-0.313727,0.958441,-34.136108,-4.034824,1.799848,41.880,-14.425,-0.282,-16.5138,6.2385,34.0367,38.3421,-21.3343,9.8154,39.4404,45.9025,204.706,221.946,-16.699,-6.486,190.143,24.390,100681.95,-150.493
