t_s,ax_raw_g,ay_raw_g,az_raw_g,gx_raw_dps,gy_raw_dps,gz_raw_dps,ax_g,ay_g,az_g,gx_dps,gy_dps,gz_dps,mpu_temp_c,roll_deg,pitch_deg,bx_uT,by_uT,bz_uT,mag_uT,bx_cal_uT,by_cal_uT,bz_cal_uT,mag_cal_uT,yaw_flat_deg,yaw_tilt_deg,mahony_roll_deg,mahony_pitch_deg,mahony_yaw_deg,bmp_temp_c,pressure_pa,altitude_m
23591.417,-0.020264,0.022705,0.969482,2.320611,-0.045802,0.381679,-0.004282,0.005339,1.004010,0.692142,0.573329,-0.092776,40.254,4.117,2.686,24.5872,-29.5413,23.5780,45.0903,26.8360,-31.2742,27.8518,49.7390,49.368,49.848,0.875,0.418,49.386,24.670,100685.09,-150.758
23591.527,0.006348,0.019775,0.963135,2.351145,-0.045802,0.427481,0.022238,0.001791,0.997575,0.722215,0.572761,-0.046740,40.245,4.114,2.668,24.6789,-29.5413,23.4862,45.0926,26.9419,-31.2741,27.7435,49.7357,49.256,49.746,0.868,0.296,49.384,24.670,100685.09,-150.758
23591.637,-0.000244,0.020264,0.972412,2.412214,0.000000,0.351145,0.015676,0.002266,1.006792,0.783284,0.618563,-0.123076,40.245,4.119,2.664,24.4954,-29.3578,23.5780,44.9202,26.7284,-31.0631,27.8499,49.5474,49.289,49.786,0.868,0.239,49.381,24.680,100685.52,-150.795
23591.747,-0.007812,0.020264,0.970215,2.412214,-0.045802,0.427481,0.008103,0.002528,1.004653,0.784207,0.573897,-0.047210,40.262,4.124,2.663,24.6789,-29.5413,23.4862,45.0926,26.9419,-31.2741,27.7435,49.7357,49.256,49.752,0.871,0.230,49.387,24.680,100685.36,-150.779
23591.857,-0.005615,0.021484,0.967041,2.442748,-0.015267,0.396947,0.010329,0.003756,1.001513,0.814125,0.603674,-0.077431,40.251,4.134,2.663,24.4954,-29.5413,23.3945,44.9446,26.7217,-31.2758,27.6269,49.5527,49.490,49.978,0.876,0.220,49.407,24.680,100685.95,-150.826
23591.967,-0.004150,0.020996,0.963135,2.458015,-0.061069,0.335878,0.011773,0.003310,0.997636,0.829085,0.557494,-0.138343,40.245,4.144,2.656,24.6789,-29.4495,23.5780,45.0804,26.9453,-31.1678,27.8550,49.7331,49.156,49.670,0.891,0.184,49.394,24.680,100685.45,-150.789
23592.077,-0.002197,0.016846,1.007812,2.458015,-0.076336,0.335878,0.013690,-0.001863,1.041801,0.830008,0.543362,-0.138813,40.262,4.149,2.647,24.4037,-29.4495,23.5780,44.9303,26.6191,-31.1695,27.8467,49.5535,49.502,50.007,0.860,0.156,49.410,24.680,100685.12,-150.758
23592.187,-0.016113,0.022705,0.973633,2.366412,0.076336,0.412214,-0.000123,0.005132,1.008098,0.737944,0.695466,-0.062242,40.254,4.151,2.669,24.5872,-29.5413,23.5780,45.0903,26.8360,-31.2742,27.8518,49.7390,49.368,49.869,0.870,0.226,49.423,24.680,100685.02,-150.752
23592.297,0.000732,0.018799,0.968506,2.351145,-0.015267,0.442748,0.016604,0.000857,1.002907,0.723138,0.604431,-0.031942,40.262,4.147,2.662,24.6789,-29.5413,23.5780,45.1404,26.9447,-31.2737,27.8546,49.7990,49.253,49.760,0.857,0.167,49.428,24.680,100685.45,-150.789
23592.407,-0.006348,0.018799,0.967041,2.381679,0.015267,0.366412,0.009521,0.001090,1.001491,0.753365,0.634587,-0.108122,40.256,4.146,2.666,24.4954,-29.5413,23.5780,45.0404,26.7273,-31.2748,27.8490,49.6792,49.483,49.978,0.841,0.172,49.443,24.690,100686.05,-150.837
23592.517,-0.012451,0.020264,0.966797,2.396947,-0.015267,0.335878,0.003458,0.002734,1.001292,0.768940,0.604431,-0.138813,40.262,4.149,2.674,24.5872,-29.4495,23.4862,44.9823,26.8338,-31.1688,27.7412,49.6097,49.274,49.777,0.846,0.202,49.437,24.690,100686.22,-150.853
23592.627,-0.011475,0.018311,0.964355,2.412214,0.045802,0.396947,0.004375,0.000805,0.998852,0.784669,0.666068,-0.077979,40.271,4.152,2.687,24.6789,-29.4495,23.4862,45.0325,26.9425,-31.1683,27.7440,49.6698,49.159,49.662,0.845,0.225,49.428,24.690,100686.48,-150.874
23592.737,-0.014160,0.020508,0.971436,2.458015,-0.091603,0.396947,0.001764,0.002926,1.005893,0.830162,0.528284,-0.077822,40.265,4.162,2.688,24.5872,-29.3578,23.4862,44.9223,26.8344,-31.0630,27.7417,49.5438,49.177,49.684,0.862,0.248,49.420,24.690,100686.41,-150.869
23592.847,-0.013428,0.022461,0.971436,2.381679,-0.061069,0.427481,0.002552,0.004859,1.005908,0.752749,0.557494,-0.046740,40.245,4.165,2.692,24.6789,-29.4495,23.4862,45.0325,26.9425,-31.1683,27.7440,49.6698,49.159,49.666,0.880,0.265,49.415,24.690,100685.91,-150.826
23592.957,-0.001709,0.019775,0.967285,2.335878,-0.015267,0.290076,0.014188,0.001930,1.001720,0.708333,0.604999,-0.184849,40.271,4.161,2.687,24.5872,-29.5413,23.5780,45.0903,26.8360,-31.2742,27.8518,49.7390,49.368,49.865,0.867,0.222,49.411,24.690,100686.20,-150.853
23593.067,0.000000,0.015381,0.963135,2.381679,-0.091603,0.305344,0.015766,-0.002425,0.997562,0.752442,0.526582,-0.168722,40.239,4.156,2.672,24.5872,-29.4495,23.4862,44.9823,26.8338,-31.1688,27.7412,49.6097,49.274,49.780,0.835,0.161,49.403,24.690,100685.88,-150.821
23593.177,0.007324,0.021973,0.967041,2.366412,-0.061069,0.412214,0.023284,0.003877,1.001457,0.738098,0.558251,-0.062320,40.256,4.157,2.652,24.5872,-29.4495,23.5780,45.0303,26.8366,-31.1684,27.8522,49.6731,49.271,49.787,0.844,0.064,49.408,24.690,100685.70,-150.810
23593.287,-0.010986,0.018555,0.991211,2.229008,0.351145,0.366412,0.004918,0.000455,1.025430,0.600693,0.970464,-0.108122,40.256,4.139,2.698,24.5872,-29.5413,23.5780,45.0903,26.8360,-31.2742,27.8518,49.7390,49.368,49.851,0.810,0.145,49.420,24.690,100685.24,-150.768
23593.397,0.000000,0.019531,0.962158,2.320611,0.015267,0.381679,0.015881,0.001748,0.996636,0.691834,0.634019,-0.092620,40.248,4.132,2.694,24.4954,-29.5413,23.4862,44.9924,26.7245,-31.2753,27.7380,49.6159,49.486,49.962,0.797,0.112,49.437,24.690,100685.74,-150.810
23593.507,-0.005615,0.018311,0.967773,2.458015,0.015267,0.412214,0.010241,0.000565,1.002207,0.830778,0.635912,-0.062868,40.277,4.140,2.697,24.5872,-29.5413,23.4862,45.0424,26.8332,-31.2747,27.7407,49.6757,49.371,49.854,0.797,0.113,49.448,24.690,100685.58,-150.800
23593.617,-0.005371,0.020020,0.953369,2.320611,-0.030534,0.320611,0.010508,0.002579,0.987968,0.692296,0.588785,-0.153923,40.256,4.135,2.694,24.6789,-29.3578,23.5780,45.0205,26.9459,-31.0619,27.8555,49.6674,49.059,49.559,0.805,0.095,49.424,24.690,100684.98,-150.747
23593.727,-0.012207,0.019043,0.968018,2.381679,-0.106870,0.381679,0.003670,0.001479,1.002487,0.752903,0.511882,-0.092620,40.248,4.135,2.692,24.5872,-29.4495,23.4862,44.9823,26.8338,-31.1688,27.7412,49.6097,49.274,49.763,0.804,0.124,49.426,24.690,100685.48,-150.789
23593.837,-0.013916,0.018555,0.966797,2.458015,-0.061069,0.381679,0.001945,0.001066,1.001282,0.829854,0.558440,-0.092933,40.259,4.143,2.696,24.5872,-29.4495,23.4862,44.9823,26.8338,-31.1688,27.7412,49.6097,49.274,49.765,0.809,0.165,49.427,24.690,100685.81,-150.816
23593.947,-0.002930,0.017822,0.968506,2.351145,0.061069,0.396947,0.012914,-0.000016,1.002915,0.723754,0.681524,-0.078057,40.274,4.138,2.701,24.6789,-29.5413,23.4862,45.0926,26.9419,-31.2741,27.7435,49.7357,49.256,49.742,0.796,0.144,49.427,24.690,100685.72,-150.810
23594.057,0.006592,0.015869,0.965332,2.381679,0.030534,0.381679,0.022376,-0.002171,0.999710,0.754134,0.650801,-0.093246,40.271,4.134,2.691,24.4954,-29.4495,23.3945,44.8843,26.7223,-31.1699,27.6274,49.4865,49.393,49.875,0.770,0.068,49.436,24.680,100685.78,-150.816
23594.167,-0.001953,0.015137,0.965088,2.274809,-0.061069,0.335878,0.013809,-0.002656,0.999502,0.646033,0.557683,-0.138422,40.248,4.118,2.681,24.5872,-29.3578,23.4862,44.9223,26.8344,-31.0630,27.7417,49.5438,49.177,49.669,0.738,0.037,49.424,24.680,100685.85,-150.821
23594.277,-0.009521,0.016846,0.965576,2.381679,-0.030534,0.351145,0.006289,-0.000742,1.000037,0.753672,0.589164,-0.123545,40.262,4.116,2.684,24.4954,-29.4495,23.5780,44.9802,26.7279,-31.1689,27.8495,49.6132,49.386,49.867,0.727,0.068,49.432,24.680,100685.95,-150.826
23594.387,-0.007812,0.019775,0.959473,2.396947,-0.122137,0.320611,0.008070,0.002272,0.994017,0.768632,0.497182,-0.153923,40.256,4.119,2.675,24.6789,-29.4495,23.4862,45.0325,26.9425,-31.1683,27.7440,49.6698,49.159,49.654,0.745,0.065,49.416,24.680,100686.02,-150.837
23594.497,-0.003906,0.021484,0.969482,2.366412,-0.030534,0.366412,0.012043,0.003654,1.003921,0.739483,0.590490,-0.108826,40.283,4.121,2.671,24.6789,-29.3578,23.4862,44.9726,26.9431,-31.0624,27.7445,49.6040,49.062,49.565,0.770,0.045,49.400,24.670,100686.09,-150.842
23594.607,-0.002441,0.017578,0.962402,2.366412,0.030534,0.396947,0.013385,-0.000142,0.996870,0.738559,0.650422,-0.077822,40.265,4.118,2.672,24.5872,-29.5413,23.5780,45.0903,26.8360,-31.2742,27.8518,49.7390,49.368,49.854,0.756,0.038,49.414,24.670,100686.09,-150.842
23594.717,-0.004395,0.019287,0.960449,2.412214,0.015267,0.351145,0.011476,0.001665,0.994963,0.784515,0.635344,-0.123702,40.268,4.122,2.674,24.5872,-29.4495,23.5780,45.0303,26.8366,-31.1684,27.8522,49.6731,49.271,49.764,0.764,0.037,49.414,24.670,100685.83,-150.821
23594.827,-0.004150,0.014648,0.970947,2.473282,-0.091603,0.366412,0.011608,-0.003209,1.005306,0.845583,0.528474,-0.108435,40.268,4.127,2.665,24.4954,-29.4495,23.4862,44.9322,26.7251,-31.1694,27.7384,49.5498,49.390,49.882,0.744,0.030,49.425,24.670,100685.83,-150.821
23594.937,-0.003662,0.016846,0.963379,2.335878,-0.091603,0.366412,0.012145,-0.000861,0.997835,0.708025,0.528284,-0.108356,40.265,4.120,2.654,24.4954,-29.5413,23.4862,44.9924,26.7245,-31.2753,27.7380,49.6159,49.486,49.974,0.722,0.022,49.442,24.670,100685.83,-150.821
23595.047,0.005371,0.019043,0.959473,2.381679,-0.076336,0.351145,0.021234,0.001165,0.993948,0.754750,0.544688,-0.124094,40.283,4.120,2.635,24.6789,-29.4495,23.4862,45.0325,26.9425,-31.1683,27.7440,49.6698,49.159,49.671,0.733,-0.054,49.430,24.670,100685.83,-150.821
23595.157,0.000000,0.017090,0.966309,2.442748,-0.045802,0.396947,0.015820,-0.000784,1.000720,0.815357,0.574654,-0.078057,40.274,4.125,2.627,24.4954,-29.3578,23.5780,44.9202,26.7284,-31.0631,27.8499,49.5474,49.289,49.804,0.730,-0.076,49.438,24.670,100685.83,-150.821
23595.267,-0.007080,0.022217,0.967041,2.381679,-0.030534,0.412214,0.008885,0.004530,1.001527,0.754750,0.590490,-0.063025,40.283,4.129,2.628,24.4954,-29.5413,23.4862,44.9924,26.7245,-31.2753,27.7380,49.6159,49.486,49.989,0.748,-0.043,49.463,24.670,100685.66,-150.805
23595.377,-0.003906,0.023438,0.967285,2.381679,-0.045802,0.396947,0.012094,0.005656,1.001766,0.753518,0.573707,-0.077666,40.259,4.134,2.623,24.5872,-29.4495,23.4862,44.9823,26.8338,-31.1688,27.7412,49.6097,49.274,49.792,0.779,-0.045,49.468,24.670,100685.66,-150.805
23595.487,-0.003418,0.016357,0.968750,2.366412,-0.106870,0.396947,0.012385,-0.001472,1.003145,0.739637,0.514343,-0.078370,40.286,4.129,2.612,24.5872,-29.4495,23.5780,45.0303,26.8366,-31.1684,27.8522,49.6731,49.271,49.793,0.760,-0.055,49.472,24.670,100685.66,-150.805
23595.597,0.004150,0.020264,0.965820,2.351145,-0.106870,0.351145,0.020059,0.002284,1.000248,0.724216,0.514154,-0.124094,40.283,4.127,2.592,24.6789,-29.3578,23.3945,44.9247,26.9403,-31.0629,27.6334,49.5408,49.065,49.603,0.772,-0.121,49.456,24.670,100685.50,-150.789
23595.707,-0.002686,0.016602,0.970947,2.503817,-0.076336,0.412214,0.013128,-0.001296,1.005318,0.877504,0.545446,-0.063339,40.295,4.138,2.584,24.6789,-29.4495,23.5780,45.0804,26.9453,-31.1678,27.8550,49.7331,49.156,49.699,0.772,-0.126,49.457,24.670,100685.39,-150.784
23595.817,0.000488,0.017334,0.964111,2.335878,-0.030534,0.351145,0.016311,-0.000506,0.998545,0.708487,0.589921,-0.123859,40.274,4.131,2.577,24.4954,-29.3578,23.4862,44.8721,26.7256,-31.0635,27.7389,49.4838,49.293,49.830,0.755,-0.141,49.463,24.670,100685.89,-150.826
23595.927,-0.009766,0.018066,0.968506,2.381679,-0.152672,0.335878,0.006085,0.000422,1.002949,0.754442,0.467973,-0.139204,40.277,4.130,2.569,24.5872,-29.3578,23.5780,44.9703,26.8372,-31.0625,27.8527,49.6073,49.174,49.721,0.754,-0.107,49.457,24.670,100685.97,-150.832
23596.037,-0.011963,0.017334,0.970703,2.427481,-0.076336,0.396947,0.003871,-0.000295,1.005127,0.801322,0.545636,-0.078684,40.298,4.134,2.572,24.5872,-29.4495,23.5780,45.0303,26.8366,-31.1684,27.8522,49.6731,49.271,49.812,0.750,-0.052,49.464,24.660,100685.87,-150.821
23596.147,-0.005371,0.020752,0.968750,2.412214,-0.076336,0.351145,0.010556,0.002979,1.003196,0.786209,0.545826,-0.124564,40.301,4.139,2.568,24.6789,-29.3578,23.5780,45.0205,26.9459,-31.0619,27.8555,49.6674,49.059,49.615,0.775,-0.054,49.447,24.660,100685.55,-150.795
23596.257,-0.010010,0.019287,0.971680,2.427481,0.045802,0.381679,0.005881,0.001582,1.006103,0.801476,0.667963,-0.094030,40.301,4.144,2.581,24.4954,-29.4495,23.4862,44.9322,26.7251,-31.1694,27.7384,49.5498,49.390,49.924,0.778,0.000,49.462,24.660,100685.61,-150.800
23596.367,-0.002930,0.022949,0.967773,2.396947,-0.015267,0.381679,0.013058,0.005129,1.002240,0.770942,0.606894,-0.094030,40.301,4.151,2.580,24.5872,-29.4495,23.4862,44.9823,26.8338,-31.1688,27.7412,49.6097,49.274,49.817,0.804,-0.009,49.464,24.650,100685.84,-150.821
23596.477,-0.001465,0.020020,0.968750,2.290076,-0.152672,0.396947,0.014442,0.002136,1.003171,0.663147,0.468352,-0.078292,40.283,4.141,2.563,24.4954,-29.4495,23.3945,44.8843,26.7223,-31.1699,27.6274,49.4865,49.393,49.933,0.793,-0.037,49.477,24.650,100685.75,-150.810
23596.587,-0.009277,0.019775,0.969727,2.396947,-0.137405,0.351145,0.006623,0.002092,1.004172,0.770326,0.483998,-0.124250,40.289,4.144,2.556,24.5872,-29.4495,23.5780,45.0303,26.8366,-31.1684,27.8522,49.6731,49.271,49.823,0.798,-0.015,49.476,24.650,100685.31,-150.773
23596.697,-0.012451,0.017822,0.967285,2.351145,-0.030534,0.335878,0.003390,0.000281,1.001751,0.724062,0.590300,-0.139283,40.280,4.140,2.565,24.5872,-29.4495,23.5780,45.0303,26.8366,-31.1684,27.8522,49.6731,49.271,49.818,0.787,0.037,49.473,24.650,100685.31,-150.773
23596.807,-0.007812,0.020752,0.968262,2.442748,-0.015267,0.290076,0.008113,0.003059,1.002725,0.815973,0.605946,-0.185241,40.286,4.148,2.569,24.6789,-29.4495,23.4862,45.0325,26.9425,-31.1683,27.7440,49.6698,49.159,49.711,0.809,0.049,49.455,24.650,100685.05,-150.752
23596.917,-0.005127,0.021729,0.963135,2.274809,0.045802,0.442748,0.010817,0.004070,0.997648,0.648188,0.667204,-0.032647,40.289,4.140,2.578,24.5872,-29.5413,23.5780,45.0903,26.8360,-31.2742,27.8518,49.7390,49.368,49.903,0.809,0.058,49.470,24.640,100684.48,-150.705
23597.027,-0.003174,0.020752,0.966064,2.366412,-0.061069,0.396947,0.012748,0.002975,1.000528,0.738867,0.559197,-0.077979,40.271,4.140,2.572,24.5872,-29.5413,23.4862,45.0424,26.8332,-31.2747,27.7407,49.6757,49.371,49.907,0.813,0.041,49.480,24.640,100685.16,-150.763
23597.137,-0.001953,0.018799,0.967041,2.381679,-0.061069,0.427481,0.013916,0.000965,1.001470,0.754750,0.559955,-0.047758,40.283,4.140,2.565,24.5872,-29.4495,23.5780,45.0303,26.8366,-31.1684,27.8522,49.6731,49.271,49.818,0.809,0.016,49.485,24.640,100685.06,-150.752
23597.247,0.002197,0.022461,0.967285,2.412214,-0.076336,0.366412,0.018170,0.004506,1.001728,0.784515,0.543741,-0.108435,40.268,4.147,2.551,24.6789,-29.4495,23.5780,45.0804,26.9453,-31.1678,27.8550,49.7331,49.156,49.716,0.834,-0.040,49.475,24.640,100685.30,-150.773
23597.357,0.003906,0.018066,0.970459,2.503817,-0.106870,0.366412,0.019761,-0.000007,1.004818,0.877504,0.514912,-0.109140,40.295,4.158,2.533,24.5872,-29.4495,23.4862,44.9823,26.8338,-31.1688,27.7412,49.6097,49.274,49.840,0.833,-0.096,49.477,24.640,100685.53,-150.795
23597.467,-0.003662,0.018311,0.965576,2.366412,-0.015267,0.427481,0.012190,0.000557,1.000024,0.740099,0.606515,-0.048071,40.295,4.156,2.534,24.6789,-29.4495,23.5780,45.0804,26.9453,-31.1678,27.8550,49.7331,49.156,49.727,0.823,-0.092,49.480,24.630,100685.27,-150.773
23597.577,-0.008301,0.019775,0.959717,2.259542,-0.152672,0.412214,0.007582,0.002281,0.994261,0.632459,0.468163,-0.062947,40.280,4.143,2.525,24.5872,-29.5413,23.5780,45.0903,26.8360,-31.2742,27.8518,49.7390,49.368,49.927,0.807,-0.067,49.496,24.630,100685.27,-150.773
23597.687,0.381104,0.651367,1.068115,3.526718,-1.801527,-33.236641,0.415041,0.620706,1.105839,1.899018,-1.181450,-33.711487,40.268,4.851,1.985,24.2202,-29.7248,23.3945,44.9164,26.3944,-31.4892,27.6176,49.5072,50.030,51.062,3.909,-1.963,45.803,24.630,100685.09,-150.758
23597.797,-0.559326,-0.042236,1.220215,1.282443,-15.038168,-30.122137,-0.544773,-0.049757,1.254042,-0.345102,-14.417902,-30.597063,40.271,4.672,0.860,22.8440,-31.3761,22.7523,44.9887,24.7335,-33.4069,26.7901,49.4518,53.485,54.731,3.023,-0.257,43.165,24.630,100684.94,-150.742
23597.907,0.082275,-0.051025,0.895996,0.412214,-19.740458,-38.641220,0.096053,-0.069736,0.930089,-1.214561,-19.119244,-39.116539,40.286,4.361,-1.336,22.0183,-32.5688,22.2936,45.1945,23.7336,-34.7908,26.2037,49.6016,55.699,57.711,1.756,-2.292,39.912,24.630,100684.59,-150.715
23598.017,0.267090,-0.029053,0.934082,40.793892,-58.000000,-2.473282,0.281572,-0.053820,0.967127,39.166656,-57.379356,-2.948364,40.277,8.433,-7.819,20.7339,-35.4128,19.8165,45.5704,22.1182,-38.0936,23.1523,49.7631,59.859,64.541,4.893,-9.393,41.062,24.630,100684.77,-150.731
23598.127,0.101318,0.213623,1.056885,80.106873,9.633588,-4.213740,0.122857,0.190987,1.091790,78.481178,10.256128,-4.689607,40.306,16.922,-6.684,18.9908,-36.4220,20.0917,45.7263,20.0544,-39.2677,23.4272,49.9296,62.946,67.220,13.439,-7.060,43.091,24.630,100684.44,-150.699
23598.237,0.093994,0.356689,0.893555,73.740456,33.725189,-12.534351,0.119276,0.337841,0.931573,72.113220,34.345833,-13.009433,40.277,24.757,-2.985,13.9450,-36.6972,23.2110,45.6059,14.1674,-39.6009,27.0472,50.0050,70.315,73.806,21.581,-2.197,45.766,24.630,100684.77,-150.731
23598.347,0.024414,0.331055,0.836182,15.389313,-22.809160,-18.381680,0.048863,0.315411,0.874871,13.763309,-22.186998,-18.857389,40.301,26.142,-5.377,7.7064,-36.7890,25.5963,45.4752,6.8457,-39.7335,29.7436,50.1029,80.224,83.040,22.563,-2.885,46.456,24.630,100684.50,-150.705
23598.457,0.002441,0.527832,0.707520,0.610687,15.160305,-14.442748,0.032211,0.515662,0.749554,-1.016242,15.781329,-14.917987,40.283,26.200,-3.609,6.3303,-37.7982,24.8624,45.6827,5.1861,-40.9105,28.8084,50.3039,82.775,84.584,23.507,0.221,49.280,24.630,100684.57,-150.715
23598.567,0.115234,0.245850,0.858887,-39.786259,-17.022902,-15.587787,0.137327,0.227110,0.896089,-41.413033,-16.401688,-16.063103,40.286,21.496,-5.474,5.1376,-37.3394,25.9633,45.7681,3.8090,-40.3829,30.1068,50.5144,84.612,87.019,17.598,-0.813,50.520,24.630,100684.34,-150.694
23598.677,-0.070557,0.419434,0.887207,-31.404581,35.725189,-3.129771,-0.043529,0.405411,0.926671,-33.030895,36.346970,-3.605323,40.295,17.978,-1.397,5.6881,-37.2477,26.6055,46.1259,4.4815,-40.2703,30.9012,50.9575,83.650,85.141,14.348,4.686,54.337,24.620,100684.24,-150.684
23598.787,-0.042480,0.298340,0.896240,-40.809162,13.190840,32.503819,-0.018852,0.283284,0.934304,-42.435936,13.812053,32.028503,40.286,13.381,0.142,6.5138,-36.4220,27.5229,46.1140,5.4932,-39.3076,32.0409,51.0086,82.045,83.072,9.932,6.130,60.438,24.620,100684.14,-150.678
23598.897,-0.038574,0.288574,0.863281,-112.488548,-72.076332,2.839695,-0.015281,0.274116,0.901573,-114.115013,-71.454742,2.364221,40.292,1.150,-7.545,10.3670,-37.0642,26.9725,46.9973,10.0391,-40.0276,31.4887,51.9088,75.920,81.709,-2.137,-1.550,61.421,24.620,100684.48,-150.705
23599.007,0.196533,0.134277,0.760254,-31.175573,39.450382,-19.374046,0.215307,0.115325,0.797014,-32.802658,40.071217,-19.849207,40.280,-2.245,-3.374,10.5505,-43.2110,20.0917,48.8076,10.0088,-47.1553,23.1357,53.4702,78.017,79.551,-4.881,2.017,60.416,24.620,100684.48,-150.705
23599.117,0.102539,0.050537,0.710205,-19.099237,26.534351,8.778625,0.118851,0.035303,0.747112,-20.726166,27.155375,8.303387,40.283,-4.380,-0.560,9.9083,-39.1743,25.4128,47.7348,9.4348,-42.4736,29.5765,52.6098,77.476,77.192,-6.577,4.615,62.033,24.620,100684.08,-150.673
23599.227,-0.110840,0.148682,1.002686,-39.251907,-37.740459,22.030535,-0.091250,0.133211,1.038516,-40.878220,-37.118675,21.554983,40.295,-8.553,-4.450,12.3853,-38.3486,25.2294,47.5451,12.3701,-41.5062,29.4340,52.3655,73.404,75.335,-9.568,1.282,65.470,24.630,100684.07,-150.673
23599.337,0.048584,0.077393,0.808838,5.480916,53.145039,-28.488550,0.065827,0.061566,0.845237,3.853833,53.765873,-28.963711,40.280,-7.883,1.346,11.8349,-38.6239,25.2294,47.6276,11.7160,-41.8272,29.4159,52.4602,74.352,71.474,-8.017,6.289,61.767,24.640,100684.03,-150.668
23599.447,0.446045,-0.399170,1.117676,-193.129776,-90.442749,13.206107,0.450426,-0.433111,1.144391,-194.755936,-89.820778,12.730476,40.298,-29.132,-8.766,13.1193,-38.8073,24.4037,47.6830,13.2120,-42.0352,28.4547,52.4518,72.552,74.944,-30.499,-4.846,66.849,24.650,100684.05,-150.668
23599.557,0.128906,-0.528809,0.706055,-337.053436,-107.786263,3.374046,0.128862,-0.544903,0.737261,-338.679443,-107.164101,2.898337,40.301,-65.790,-20.304,25.7798,-41.5596,10.8257,50.0899,27.7864,-45.2018,12.3936,54.4875,58.420,35.903,-68.122,-13.075,75.155,24.660,100684.20,-150.684
23599.667,0.291992,-0.942383,-0.129883,-270.030548,-68.656487,-22.137405,0.278786,-0.945176,-0.094797,-271.657166,-68.035080,-22.612801,40.289,-95.675,-27.559,22.8440,-41.6514,-13.2110,49.3074,23.5747,-45.4485,-16.7864,53.8805,62.584,93.715,-101.813,-16.984,82.774,24.670,100684.33,-150.694
23599.787,0.416504,-0.909912,0.024414,184.763351,22.717558,-20.213741,0.404502,-0.919560,0.057634,183.136887,23.339149,-20.689215,40.292,-73.953,-24.738,21.9266,-41.9266,-13.1193,49.0992,22.4885,-45.7713,-16.7047,53.6637,63.834,82.166,-76.933,-20.795,78.724,24.680,100684.62,-150.715
23599.907,0.260986,-0.623779,0.676514,382.473297,72.274811,-46.320610,0.258219,-0.643014,0.706485,380.847290,72.896973,-46.796318,40.301,-28.535,-15.973,24.6789,-42.9358,-5.2294,49.7983,25.9843,-46.8787,-7.0774,54.0637,61.001,65.266,-26.332,-19.471,67.071,24.690,100684.70,-150.726
23600.017,0.160889,-0.115234,0.799805,186.045807,22.335878,39.954197,0.172688,-0.134118,0.833902,184.419800,22.958040,39.478489,40.301,-8.265,-13.410,21.3761,-43.7615,12.0183,50.1642,22.5899,-47.7643,13.6917,54.5820,64.688,69.165,-5.643,-14.757,70.669,24.700,100684.73,-150.726
23600.127,0.258301,0.014893,0.959961,242.015274,28.687023,-16.992367,0.274069,-0.010170,0.993206,240.388504,29.308237,-17.467684,40.286,17.800,-10.291,13.3028,-42.3853,20.7339,49.0242,13.2954,-46.1820,24.0009,53.7177,73.939,77.344,21.054,-11.071,70.047,24.710,100684.86,-150.736
23600.237,0.189941,0.225830,0.781006,103.450378,7.709924,-4.992366,0.211336,0.206648,0.818471,101.822372,8.329622,-5.467057,40.262,28.704,-9.468,10.4587,-40.7339,23.8532,48.3489,10.0300,-44.2780,27.6977,53.1819,77.237,79.785,31.450,-10.186,71.208,24.720,100684.45,-150.705
23600.347,0.164795,0.529053,0.828125,97.496185,8.427481,-24.641222,0.194830,0.509672,0.868161,95.870338,9.049831,-25.117010,40.304,39.073,-8.522,4.2202,-38.6239,26.2385,46.8836,2.7221,-41.8695,30.4054,51.8166,86.280,86.561,42.116,-7.841,71.377,24.730,100684.24,-150.684
23600.457,0.139160,0.519775,0.875732,15.908397,-4.366412,-29.480917,0.169017,0.500089,0.915306,14.282854,-3.743682,-29.956861,40.309,40.405,-8.940,1.0092,-38.0734,26.2385,46.2500,-1.0801,-41.2543,30.3104,51.2036,91.500,90.559,42.626,-6.318,70.867,24.730,100684.17,-150.678
23600.567,0.103760,0.511475,0.863037,5.328244,-7.328244,-11.129771,0.133356,0.493063,0.902827,3.702240,-6.706082,-11.605480,40.301,40.568,-9.631,1.7431,-38.1651,26.5138,46.5037,-0.2025,-41.3542,30.6654,51.4837,90.281,89.551,41.710,-6.341,71.579,24.740,100684.56,-150.710
23600.677,0.032959,0.600830,0.761230,-20.091602,-0.732824,15.114504,0.064888,0.586659,0.803274,-21.717144,-0.110094,14.638559,40.309,38.139,-9.525,2.2018,-38.4404,26.4220,46.6973,0.3367,-41.6694,30.5669,51.6797,89.537,89.321,38.577,-7.227,74.745,24.750,100684.32,-150.694
23600.787,0.109131,0.496826,0.830078,-10.091603,-3.679389,-2.290076,0.138255,0.478970,0.870042,-11.717762,-3.057418,-2.765707,40.298,36.689,-9.823,3.1193,-38.6239,26.2385,46.7974,1.4173,-41.8764,30.3719,51.7503,88.062,88.328,36.287,-7.427,75.885,24.760,100684.28,-150.689
23600.897,0.072510,0.484375,0.862549,-62.992367,-7.053435,-12.000000,0.101338,0.466851,0.902228,-64.619293,-6.432411,-12.475239,40.283,29.537,-10.434,3.9450,-38.8073,26.2385,47.0110,2.3947,-42.0830,30.3961,51.9676,86.743,88.531,28.412,-7.020,75.696,24.760,100684.31,-150.689
23601.007,0.181885,0.337402,1.010742,-221.893127,-43.007633,18.274809,0.206840,0.313522,1.046948,-223.519592,-42.386040,17.799335,40.292,5.184,-15.009,10.9174,-40.3670,23.7615,48.0967,10.5732,-43.8521,27.6025,52.8838,76.444,84.901,2.834,-12.173,76.895,24.770,100684.50,-150.705
23601.117,0.184814,-0.165283,0.959961,-416.290070,-48.641220,65.633591,0.195491,-0.188325,0.991802,-417.915771,-48.018681,65.157722,40.306,-40.187,-20.104,26.1468,-40.9174,11.5596,49.9151,28.2477,-44.4547,13.2962,54.3225,57.567,62.567,-43.929,-15.219,84.051,24.780,100684.62,-150.715
23601.227,0.204102,-0.681152,0.455322,144.885498,5.969466,-38.305344,0.199313,-0.694012,0.487294,143.259796,6.592007,-38.781212,40.306,-25.039,-19.256,29.8165,-40.4587,2.1101,50.3029,32.3121,-43.9505,1.9741,54.5859,53.677,58.617,-27.578,-18.268,78.430,24.790,100684.38,-150.699
23601.337,0.251221,-0.536621,0.711670,-62.870228,-33.267174,31.862595,0.250976,-0.556308,0.742169,-64.495308,-32.643875,31.386414,40.318,-32.228,-22.693,26.6055,-42.0183,7.4312,50.2854,28.6588,-45.7434,8.3082,54.6151,57.932,67.323,-37.090,-19.950,82.898,24.800,100684.00,-150.668
23601.447,0.284912,-0.671875,0.612061,6.503817,4.580153,-10.595420,0.280674,-0.690411,0.642121,4.877966,5.202504,-11.071208,40.304,-31.999,-22.010,28.1651,-41.2844,4.2202,50.1546,30.4141,-44.9030,4.4733,54.4179,55.889,63.430,-36.780,-21.005,80.619,24.800,100684.44,-150.699
23601.557,0.283936,-0.552002,0.671875,174.992371,33.603054,-23.297710,0.283188,-0.571762,0.702483,173.366211,34.225025,-23.773342,40.298,-13.452,-18.227,28.0734,-41.1927,5.5963,50.1624,30.3478,-44.7907,6.1365,54.4504,55.880,60.644,-16.335,-19.221,75.409,24.810,100684.30,-150.689
23601.667,0.030518,-0.230225,0.821777,186.198471,-6.106870,11.312977,0.039100,-0.245926,0.855143,184.573090,-5.483950,10.836953,40.312,6.392,-18.504,22.3853,-40.8257,16.8807,49.5257,23.9523,-44.3451,19.6220,54.0853,61.625,68.637,3.343,-18.075,76.756,24.820,100685.09,-150.758
23601.777,0.214355,0.131348,0.939453,54.122139,9.480916,1.511450,0.233370,0.108015,0.974246,52.496906,10.104027,1.035348,40.315,12.050,-17.313,16.2385,-38.9908,23.4862,48.3278,16.8798,-42.2322,27.4385,53.1164,68.214,77.121,9.338,-16.357,77.133,24.820,100685.25,-150.768
23601.887,0.209961,0.324219,0.744385,35.648853,10.702291,-3.526718,0.234068,0.305295,0.783089,34.023930,11.325781,-4.002977,40.321,15.903,-16.057,17.7982,-38.8991,22.8440,48.4950,18.7092,-42.1199,26.7092,53.2682,66.050,73.610,14.457,-15.073,76.374,24.830,100685.28,-150.773
23601.997,0.111572,0.200195,0.978760,-13.343512,15.022901,17.312977,0.132592,0.178952,1.014295,-14.969670,15.644873,16.837345,40.298,14.171,-14.196,15.9633,-38.6239,23.6697,48.0300,16.5615,-41.8095,27.6540,52.7926,68.391,75.777,11.770,-12.982,78.717,24.830,100685.57,-150.795
23602.107,0.125977,0.325684,1.201416,-96.778625,9.343512,11.526717,0.150940,0.299263,1.235796,-98.403702,9.966812,11.050537,40.318,3.553,-12.973,19.6330,-36.7890,24.0367,48.1316,20.9333,-39.6672,28.2192,52.9907,62.178,70.514,0.992,-11.787,79.239,24.840,100684.89,-150.742
23602.217,0.126221,-0.113770,0.967041,-136.625961,-30.870230,39.450382,0.138359,-0.135284,0.999583,-138.250275,-30.245979,38.973808,40.333,-11.576,-16.130,24.1284,-36.6055,20.9174,48.5766,26.1673,-39.4433,24.5819,53.3364,56.439,64.265,-15.887,-15.022,82.927,24.840,100684.42,-150.699
23602.327,0.253418,-0.389404,0.833008,-107.145035,-31.572519,70.381676,0.257547,-0.411725,0.863668,-108.769341,-30.948269,69.905098,40.333,-23.580,-19.445,32.6605,-35.1376,11.7431,49.3889,36.0092,-37.7428,13.7460,53.9457,46.347,49.628,-30.522,-17.016,89.632,24.850,100684.88,-150.742
23602.437,0.235107,-0.565186,0.578125,-242.091599,-33.450382,59.221375,0.233815,-0.581539,0.609805,-243.717453,-32.828030,58.745586,40.304,-50.254,-22.905,38.5321,-30.8257,-1.7431,49.3760,42.5844,-32.7987,-2.3748,53.8035,37.604,37.229,-59.527,-17.732,94.000,24.860,100684.55,-150.710
23602.547,0.211182,-0.968506,0.222900,-138.122131,-40.610687,1.923664,0.197865,-0.976642,0.254458,-139.747208,-39.987389,1.447484,40.318,-65.822,-26.980,37.8899,-29.4495,-10.0000,49.0196,41.5804,-31.2565,-12.3801,53.4712,36.933,42.367,-76.837,-21.531,95.574,24.860,100684.48,-150.705
23602.657,0.185303,-1.056152,0.075684,-6.625954,-20.900763,8.259542,0.169246,-1.060403,0.108037,-8.251651,-20.278221,7.783675,40.306,-67.078,-28.807,34.5872,-27.6147,-18.6239,48.0176,37.4150,-29.2035,-22.9082,52.7021,37.973,53.393,-78.680,-22.271,95.559,24.870,100684.77,-150.731
23602.767,0.261475,-0.940186,0.270752,104.229004,-43.480915,7.206107,0.249048,-0.950773,0.301853,102.605469,-42.855713,6.729139,40.348,-56.125,-33.131,37.0642,-26.3303,-16.1468,48.2468,40.4342,-27.6931,-19.8284,52.8678,34.407,49.406,-67.457,-24.403,97.144,24.870,100684.53,-150.710
23602.877,-0.007568,-0.829102,0.428467,124.030533,68.625954,40.167938,-0.016599,-0.835429,0.460273,122.406532,69.250580,39.691208,40.339,-43.029,-24.982,40.1835,-23.4862,-12.8440,48.2834,44.2493,-24.3747,-15.7219,52.9084,28.848,36.959,-50.647,-16.448,88.556,24.880,100684.32,-150.694
23602.997,0.236572,-0.393066,0.912354,185.832062,-30.610687,27.984734,0.240739,-0.416626,0.942236,184.207291,-29.987007,27.508396,40.324,-20.984,-28.272,43.5780,-20.2752,1.6514,48.0921,48.7336,-20.5739,1.9407,52.9341,22.888,25.641,-24.619,-18.686,87.069,24.890,100683.45,-150.620
23603.107,0.147705,-0.291260,0.995850,112.671753,-7.740458,-7.908397,0.154888,-0.314068,1.026271,111.048218,-7.115257,-8.385365,40.348,-8.934,-28.638,41.1927,-19.4495,13.8532,47.6133,46.2832,-19.5737,16.6394,52.9352,22.924,28.167,-8.856,-20.865,82.076,24.900,100683.20,-150.599
23603.217,0.006836,-0.104004,1.277344,65.145035,-5.083970,0.351145,0.019798,-0.128837,1.307327,63.521191,-4.459149,-0.125665,40.342,-2.020,-28.563,39.1743,-19.2661,17.9817,47.2138,44.0180,-19.3535,21.5753,52.7032,23.734,33.545,0.366,-21.352,78.838,24.900,100683.49,-150.620
23603.327,0.028564,-0.037109,0.907471,-11.221375,-7.236641,-37.832062,0.042751,-0.054540,0.941831,-12.844756,-6.611251,-38.309109,40.351,-3.431,-28.756,36.6972,-18.9908,21.9266,46.7773,41.2040,-19.0312,26.2756,52.4439,24.791,37.200,1.644,-21.956,71.976,24.910,100683.48,-150.620
23603.437,0.535645,0.184570,1.034180,0.198473,13.847328,46.671757,0.556359,0.150097,1.067003,-1.425063,14.472528,46.194790,40.348,-3.356,-27.167,36.6972,-18.7156,22.2936,46.8398,41.2169,-18.7117,26.7212,52.5641,24.417,35.506,1.366,-22.714,75.123,24.910,100682.92,-150.573
23603.547,-0.155273,-0.085449,1.070801,7.557252,33.725189,-2.427481,-0.142173,-0.101214,1.103862,5.932635,34.349060,-2.903898,40.327,-2.754,-22.775,37.1560,-18.5321,22.0183,46.9980,41.7533,-18.4985,26.4030,52.7508,23.895,31.625,2.589,-17.559,72.983,24.920,100682.78,-150.562
23603.657,-0.028076,-0.152832,0.952637,-16.122137,27.496183,-27.862595,-0.017079,-0.169673,0.985672,-17.746290,28.120625,-28.339247,40.336,-4.807,-19.268,37.2477,-16.9725,22.4771,46.6977,41.8857,-16.6957,26.9689,52.5403,21.732,25.450,1.561,-14.243,67.717,24.920,100683.14,-150.594
23603.767,0.151855,-0.118408,0.694580,71.083969,-114.320610,18.259542,0.163375,-0.134762,0.729779,69.459969,-113.695984,17.782810,40.339,2.568,-31.388,36.3303,-18.8073,22.9358,46.9005,40.8010,-18.8166,27.4867,52.6716,24.758,43.688,9.206,-27.996,66.380,24.920,100682.98,-150.578
23603.877,0.462646,0.067871,0.898438,107.175575,-185.511444,13.755725,0.479817,0.038362,0.931876,105.551575,-184.886810,13.278994,40.339,13.941,-51.234,33.4862,-24.9541,22.9358,47.6454,37.3920,-25.9282,27.3688,53.0988,34.738,76.590,24.044,-48.095,60.209,24.920,100682.91,-150.573
23603.987,0.619873,0.161133,0.670654,1.770992,-80.687019,18.839695,0.639280,0.132122,0.706620,0.147302,-80.062012,18.362806,40.345,13.890,-59.675,30.7339,-33.3027,18.4404,48.9254,33.9412,-35.6031,21.8020,53.8044,46.369,81.080,24.289,-56.091,59.296,24.930,100683.07,-150.588
23604.097,0.910400,0.368896,0.663330,28.870230,-107.312981,-26.259542,0.935683,0.331877,0.700025,27.245922,-106.688728,-26.736116,40.333,17.057,-70.989,30.0000,-37.7982,12.0183,49.7307,32.8478,-40.8284,13.9846,54.2357,51.182,77.729,42.375,-63.587,42.231,24.930,100683.50,-150.620
23604.207,0.576172,0.251465,0.406250,8.946565,-35.603054,41.236641,0.597649,0.229440,0.446034,7.322411,-34.978615,40.759987,40.336,18.049,-74.340,29.2661,-39.0826,10.8257,50.0114,31.9337,-42.3214,12.5123,54.4740,52.964,77.487,38.004,-67.753,48.145,24.930,100683.77,-150.647
23604.317,1.118652,0.238525,0.456787,-2.244275,-28.549618,46.000000,1.139902,0.200019,0.493381,-3.868428,-27.925179,45.523346,40.336,17.713,-77.163,32.4771,-37.8899,5.2294,50.1772,35.5763,-40.9535,5.8432,54.5619,49.019,70.274,28.504,-72.825,57.452,24.940,100683.36,-150.610
23604.427,0.833984,0.054443,0.565918,-27.572519,82.671753,14.824428,0.850210,0.021587,0.600929,-29.195745,83.297333,14.347301,40.354,14.252,-67.734,34.4954,-35.3211,7.2477,49.9003,38.0459,-37.9660,8.3605,54.3949,44.940,68.167,10.441,-62.709,73.067,24.940,100683.30,-150.604
23604.537,0.665039,-0.093994,0.534668,-41.633587,214.473282,83.160309,0.677005,-0.121436,0.569355,-43.257431,215.098099,82.683502,40.342,9.064,-44.181,36.2385,-32.9358,8.8073,49.7551,40.1741,-35.1944,10.3132,54.3964,41.220,54.891,-8.128,-38.413,89.304,24.940,100682.80,-150.562
23604.647,0.652344,-0.048096,0.620605,43.160305,51.526718,-48.000000,0.665758,-0.077019,0.654907,41.536152,52.151157,-48.476654,40.336,13.227,-38.580,37.7064,-27.6147,14.6789,48.9879,42.1257,-29.0144,17.4910,54.0587,34.557,50.637,1.690,-35.386,80.094,24.940,100682.80,-150.562
23604.757,0.435303,0.108398,0.824707,48.641220,8.183207,-9.786260,0.453482,0.081273,0.859430,47.018612,8.809549,-10.263700,40.365,18.138,-37.413,34.5872,-27.8899,19.5413,48.5384,38.5751,-29.3267,23.2792,53.7589,37.244,57.069,8.531,-34.510,77.268,24.940,100683.22,-150.599
23604.867,0.398926,0.063477,1.045654,-10.076336,211.526718,10.458015,0.416232,0.032591,1.077824,-11.699254,212.152679,9.980732,40.359,16.549,-14.216,33.5780,-27.7982,21.1009,48.4300,37.4271,-29.2192,25.1365,53.7252,37.979,47.340,5.057,-11.277,80.711,24.940,100683.22,-150.599
23604.977,0.039795,0.061035,0.936035,-31.648855,268.793884,-34.854961,0.056804,0.042703,0.970999,-33.272701,269.418701,-35.331772,40.342,12.682,15.041,33.7615,-15.1376,27.9817,46.3892,37.9329,-14.5718,33.5339,52.6856,21.014,25.974,2.006,16.548,76.385,24.940,100682.45,-150.536
23605.087,-0.473145,0.018555,0.751953,-16.564886,168.992371,-9.832061,-0.457710,0.018733,0.790815,-18.188267,169.617767,-10.309108,40.351,10.495,33.627,34.4037,-1.5596,27.9817,44.3736,38.7787,1.1022,33.6227,51.3370,358.372,5.676,1.281,34.713,71.102,24.940,100682.62,-150.551
23605.197,-0.583984,-0.034424,0.781982,-13.099236,119.328247,-2.641221,-0.570000,-0.031770,0.820539,-14.722618,119.953636,-3.118268,40.351,8.653,46.581,34.8624,2.2018,26.6055,43.9100,39.3039,5.4391,31.9903,50.9682,352.121,359.361,-1.263,47.435,64.217,24.940,100682.20,-150.514
23605.307,-0.742920,-0.024414,0.572754,-34.702290,168.717560,8.916031,-0.729043,-0.012726,0.614319,-36.325981,169.342575,8.439142,40.345,4.540,64.904,35.6881,9.5413,22.2018,43.0998,40.1941,13.8920,26.7234,50.2264,340.934,344.451,-12.197,66.452,52.318,24.940,100682.36,-150.525
23605.417,-1.086182,-0.110107,0.005859,-32.152672,143.770996,0.183206,-1.075772,-0.076460,0.054072,-33.776054,144.396393,-0.293841,40.351,-0.286,80.871,36.8807,16.8807,12.3853,42.4092,41.3545,22.3197,14.9167,49.3039,331.644,313.403,-71.785,78.870,353.481,24.930,100681.93,-150.488
23605.537,-1.011719,-0.121826,0.125000,10.656488,-7.068702,-2.519084,-1.001419,-0.092870,0.171516,9.033416,-6.442931,-2.996289,40.356,0.213,80.075,36.9725,16.9725,11.9266,42.3943,41.4499,22.4238,14.3649,49.2673,331.587,313.698,-73.505,74.821,349.503,24.930,100681.77,-150.477
23605.647,-0.952148,-0.067383,0.191406,21.053434,-175.328247,-5.358778,-0.940188,-0.041533,0.237484,19.431290,-174.701340,-5.836457,40.374,2.105,61.153,36.6055,15.1376,15.4128,42.5049,41.1096,20.3217,18.5635,49.4730,333.695,331.888,-35.988,61.115,25.952,24.930,100681.59,-150.462
23605.757,-0.631104,-0.033691,0.704102,10.595420,-173.938934,6.702290,-0.617243,-0.028017,0.743692,8.972811,-173.312592,6.224849,40.365,2.987,42.041,35.9633,7.7064,22.8440,43.2966,40.5284,11.7795,27.4996,50.3740,343.794,348.072,-22.169,43.255,37.938,24.930,100681.77,-150.477
23605.867,-0.479492,-0.038574,0.820801,-20.580153,-71.877861,-11.419847,-0.465546,-0.039724,0.858425,-22.201525,-71.249992,-11.897921,40.389,0.481,34.088,35.9633,4.1284,24.4037,43.6571,40.5536,7.6581,29.3689,50.6535,349.306,351.582,-21.880,34.308,35.854,24.940,100681.70,-150.472
23605.977,-0.436279,-0.015625,0.871826,20.916031,-107.480919,-12.259542,-0.421590,-0.019095,0.908942,19.293884,-106.854004,-12.737220,40.374,2.528,22.383,36.6972,-1.6514,25.5046,44.7202,41.4210,0.9980,30.6942,51.5638,358.620,0.409,-15.626,22.125,35.369,24.940,100681.45,-150.451
23606.087,-0.098389,-0.082031,0.806396,21.251909,-142.045807,-18.824427,-0.085663,-0.093692,0.841963,19.631310,-141.416992,-19.302896,40.404,4.466,6.810,36.4220,-8.4404,26.3303,45.7284,41.0776,-6.8345,31.6505,52.3052,9.446,11.786,-10.516,4.714,34.195,24.940,100681.45,-150.451
23606.197,0.599121,0.028076,1.130371,25.114504,-289.053436,-4.824428,0.615597,-0.010331,1.160382,23.493132,-288.425568,-5.302501,40.389,6.899,-24.980,35.9633,-17.5229,24.9541,47.1500,40.4355,-17.3263,29.9248,53.2045,23.195,39.770,-6.577,-29.424,36.854,24.950,100681.72,-150.472
23606.307,0.745361,0.018555,0.631836,21.832062,-217.679382,-6.442748,0.760685,-0.013226,0.666232,20.210381,-217.051895,-6.920663,40.383,8.917,-48.853,35.5046,-29.4495,16.8807,49.1204,39.5717,-31.1345,20.0793,54.2075,38.195,66.490,-6.564,-54.375,40.381,24.950,100681.65,-150.467
23606.417,0.880615,0.009521,0.460449,9.725191,-143.083969,1.740458,0.895388,-0.022393,0.495899,8.103664,-142.456299,1.262464,40.386,9.561,-64.455,35.5046,-34.7706,5.6881,50.0193,39.1979,-37.3324,6.5065,54.5208,43.604,66.206,-12.581,-69.153,49.108,24.950,100681.91,-150.488
23606.527,0.922607,-0.017090,0.338135,10.885496,-96.564888,-2.854962,0.936412,-0.047560,0.374396,9.264124,-95.937019,-3.333035,40.389,10.224,-74.868,35.6881,-35.2294,1.3761,50.1661,39.2812,-37.8826,1.2912,54.5873,43.962,67.525,-22.808,-77.528,62.156,24.950,100682.34,-150.525
23606.637,1.020508,0.023682,0.059570,-0.549618,-126.274811,1.816794,1.034971,-0.003529,0.098653,-2.170372,-125.646179,1.338404,40.401,9.744,-88.608,35.5963,-35.0459,-4.8624,50.1892,38.9837,-37.7032,-6.2607,54.5936,44.043,69.503,-106.904,-84.226,147.958,24.950,100681.84,-150.483
23606.747,1.054932,0.053711,-0.038818,12.488549,-68.061066,7.282443,1.070068,0.027661,0.001413,10.867177,-67.433197,6.804369,40.389,12.462,-95.874,35.6881,-32.1101,-12.8440,49.6957,38.8677,-34.3552,-15.9027,54.2575,41.473,57.965,-140.374,-79.927,183.990,24.950,100681.84,-150.483
23606.857,1.085693,-0.001465,-0.041260,-5.267176,63.908398,12.442748,1.099271,-0.028354,-0.001683,-6.887620,64.537407,11.964199,40.406,9.602,-88.769,35.5046,-31.9266,-13.6697,49.6663,38.6263,-34.1488,-16.9066,54.2583,41.479,53.067,-81.665,-82.133,125.075,24.960,100682.27,-150.520
23606.967,0.917236,-0.016113,0.071289,-29.511450,212.320618,0.931298,0.930589,-0.040663,0.110348,-31.131893,212.949631,0.452749,40.406,5.650,-65.695,36.2385,-33.9450,-7.5229,50.2204,39.6707,-36.4422,-9.4555,54.6919,42.571,51.433,-19.164,-63.120,58.715,24.960,100681.77,-150.477
23607.077,0.801758,0.017334,0.446289,10.106871,185.297714,-2.503817,0.816718,-0.012035,0.482330,8.485807,185.925964,-2.982049,40.395,6.423,-45.527,36.1468,-34.3119,5.3211,50.1220,39.9507,-36.8009,6.0842,54.6569,42.650,54.458,-10.054,-41.980,50.061,24.960,100681.77,-150.477
23607.187,0.588623,0.007812,0.683350,24.534351,72.656487,-1.312977,0.603723,-0.020641,0.717842,22.913288,73.284737,-1.791209,40.395,8.732,-37.518,36.2385,-32.3853,10.0917,49.6375,40.2166,-34.5526,11.8704,54.3338,40.668,52.142,-6.005,-33.401,48.596,24.960,100681.87,-150.488
23607.297,0.584473,-0.031250,0.775635,2.137405,35.328243,-1.587786,0.598635,-0.061594,0.808812,0.516497,35.956680,-2.066097,40.398,8.526,-33.619,35.7798,-30.4587,14.6789,49.2280,39.8246,-32.3086,17.4178,54.1593,39.051,52.731,-5.607,-29.584,48.178,24.960,100681.87,-150.488
23607.407,0.509521,-0.017822,0.860840,-10.351145,69.114502,10.839695,0.524210,-0.047878,0.893617,-11.972208,69.742752,10.361464,40.395,7.004,-26.038,36.4220,-27.8899,16.7890,48.8496,40.6660,-29.3293,20.0042,53.9824,35.800,47.027,-6.814,-21.925,48.403,24.960,100681.37,-150.441
23607.517,0.284912,-0.064941,0.921875,-25.511450,192.244278,4.137404,0.298361,-0.089963,0.954615,-27.132050,192.873093,3.658935,40.404,3.831,-5.069,36.9725,-24.4954,19.3578,48.3913,41.4177,-25.3953,23.1471,53.8158,31.515,34.332,-8.825,-0.982,45.211,24.960,100681.20,-150.430
23607.627,-0.002930,-0.089844,0.897217,5.206107,180.381683,-6.625954,0.009747,-0.106178,0.931319,3.585198,181.010117,-7.104265,40.398,4.010,14.533,37.2477,-14.0367,24.4037,46.6900,41.9627,-13.2977,29.3155,52.8875,17.583,17.792,-7.547,17.682,39.363,24.960,100681.54,-150.456
23607.737,-0.342285,-0.068848,0.859131,11.694656,150.519089,-7.374046,-0.329113,-0.074728,0.895422,10.073903,151.147720,-7.852436,40.401,4.921,30.939,36.3303,-4.2202,26.5138,45.1739,41.0008,-1.9637,31.8913,51.9805,2.742,5.214,-6.577,33.801,32.847,24.960,100681.27,-150.435
23607.847,-0.558105,-0.045654,0.781982,-3.770992,138.854965,-1.755725,-0.544436,-0.043738,0.820309,-5.392519,139.482635,-2.233719,40.386,4.180,46.027,35.7798,-0.2752,26.3303,44.4247,40.3674,2.5847,31.6725,51.3746,356.336,359.697,-9.120,48.736,25.811,24.950,100681.34,-150.441
23607.957,-0.746826,-0.063477,0.657715,-38.625954,160.427475,-22.503817,-0.733899,-0.053528,0.698039,-40.248100,161.054382,-22.981495,40.374,-0.331,63.397,36.6972,7.5229,22.1101,43.4987,41.3748,11.5685,26.6328,50.5471,344.379,344.504,-28.429,64.039,5.326,24.950,100681.91,-150.488
23608.067,-1.040527,-0.162109,0.385498,-25.068703,81.114502,-29.435114,-1.030899,-0.137982,0.429061,-26.689302,81.743324,-29.913584,40.404,-3.557,72.268,37.9817,10.5505,17.8899,43.2893,42.7874,15.0490,21.5799,50.2288,340.622,333.392,-54.555,67.705,338.448,24.950,100682.05,-150.499
23608.177,-0.945068,-0.324463,0.335205,-21.053434,4.503817,-40.381680,-0.940105,-0.302012,0.377266,-22.674498,5.132065,-40.859913,40.395,-6.704,72.632,40.3670,8.8991,13.3945,43.4523,45.4673,13.1352,16.2036,50.0236,343.886,331.463,-63.740,62.738,330.349,24.950,100682.55,-150.541
23608.287,-0.843506,-0.356201,0.280762,15.694656,-32.931297,-0.793893,-0.839527,-0.335464,0.322603,14.074368,-32.302097,-1.272521,40.409,-5.975,68.917,41.5596,6.1468,12.7523,43.9045,46.8441,9.9630,15.4486,50.3219,347.993,339.137,-55.867,60.362,336.919,24.940,100682.45,-150.536
23608.397,-0.815918,-0.221680,0.745117,46.519085,-141.816788,14.503817,-0.807305,-0.211716,0.783325,44.898640,-141.187775,14.025269,40.406,-1.318,53.216,41.1927,5.4128,14.3119,43.9427,46.4521,9.1216,17.3212,50.4086,348.890,347.088,-30.867,48.566,359.333,24.940,100682.05,-150.504
23608.507,-0.668457,-0.184570,0.345459,33.251907,-135.465652,24.076336,-0.659503,-0.170137,0.387475,31.631618,-134.836456,23.597708,40.409,1.644,38.764,39.5413,2.3853,19.7248,44.2523,44.6408,5.6449,23.8064,50.9059,352.793,354.313,-19.619,37.238,9.089,24.940,100682.39,-150.530
23608.617,-0.168945,-0.075684,0.817627,78.580154,-126.335876,12.687023,-0.156026,-0.085584,0.853469,76.960022,-125.706482,12.208316,40.412,9.794,24.641,37.4312,-5.2294,24.4954,45.0385,42.2378,-3.1318,29.4769,51.6017,4.241,9.152,-6.959,21.591,13.145,24.940,100682.30,-150.520
23608.727,-0.158203,0.117920,0.970459,109.725189,-67.007637,38.366413,-0.139544,0.104478,1.006546,108.105362,-66.377861,37.887547,40.418,21.367,17.152,34.1284,-7.5229,28.1651,44.8845,38.4209,-5.7807,33.8060,51.5017,8.556,21.310,8.016,12.900,16.835,24.940,100682.45,-150.536
23608.837,-0.096436,0.311279,0.966309,174.137405,-42.259541,42.687023,-0.072321,0.296243,1.004025,172.518356,-41.628811,42.207760,40.433,39.868,12.400,26.7890,-10.8257,34.0367,44.6469,29.8806,-9.6081,40.6717,51.3746,17.825,44.058,27.937,6.267,20.161,24.940,100682.36,-150.525
23608.947,0.174316,0.753906,0.742432,249.786255,-96.244278,13.755725,0.210545,0.736186,0.785492,248.166275,-95.614693,13.276938,40.415,66.685,1.624,10.4587,-17.4312,39.5413,44.4606,10.6528,-17.3050,46.8028,51.0240,58.384,77.856,54.173,-3.062,17.213,24.930,100682.27,-150.520
23609.057,0.235352,0.999512,0.235596,234.351151,-63.770992,34.534351,0.277606,0.991103,0.286001,232.732407,-63.139881,34.054932,40.439,91.920,-5.517,1.0092,-20.8257,38.9908,44.2155,-0.5844,-21.2842,45.8316,50.5361,91.573,87.954,80.761,-10.480,17.792,24.930,100681.57,-150.462
23609.167,0.226807,0.894043,-0.055664,200.595413,-44.854961,16.061069,0.265560,0.892136,-0.003226,198.976212,-44.224422,15.581886,40.430,113.334,-10.505,-15.4128,-27.9817,30.2752,44.0127,-20.3573,-29.6894,34.7473,50.0325,124.437,121.893,106.297,-16.953,15.611,24.930,100681.80,-150.483
23609.287,0.211914,0.976318,-0.375000,80.061066,0.396947,-38.274811,0.252414,0.981765,-0.318387,78.442017,1.027676,-38.754074,40.433,122.452,-10.449,-23.1193,-29.3578,21.5596,43.1416,-29.7646,-31.3700,23.9577,49.4366,133.496,171.310,116.494,-17.226,17.888,24.920,100681.48,-150.451
23609.397,0.199463,0.933350,-0.451904,-6.870229,9.770992,-22.015266,0.238611,0.940797,-0.394853,-8.488814,10.402296,-22.494766,40.442,121.343,-9.382,-26.1468,-26.7890,19.7248,42.3128,-33.3926,-28.4336,21.6581,48.9143,139.586,172.225,114.362,-19.932,21.093,24.920,100681.45,-150.451
23609.507,0.157715,0.976074,-0.326172,-111.053436,25.709923,-32.641220,0.198291,0.982002,-0.269813,-112.672020,26.341227,-33.120720,40.442,108.876,-6.575,-26.1468,-25.1376,21.5596,42.1945,-33.3264,-26.5185,23.8871,48.8311,141.490,154.462,99.723,-20.827,26.907,24.910,100681.26,-150.435
23609.627,0.111084,1.033447,0.066162,-203.709930,12.778625,2.381679,0.153981,1.032237,0.119234,-205.327896,13.410694,1.901861,40.454,84.222,-5.035,-19.3578,-21.8349,31.5596,42.9825,-24.9553,-22.6136,36.2130,49.4522,137.818,121.206,74.186,-23.136,32.632,24.910,100681.92,-150.488
23609.737,0.135254,0.879395,0.478516,-247.374039,30.946566,14.412213,0.174546,0.868531,0.525709,-248.992310,31.578251,13.932553,40.448,56.871,-1.725,-1.6514,-19.7248,39.6330,44.3009,-3.7112,-20.0270,46.5334,50.7958,100.498,94.548,44.744,-20.843,41.813,24.900,100682.49,-150.536
23609.847,0.104248,0.569092,0.802246,-243.786255,51.664124,-13.297709,0.135362,0.552001,0.843222,-245.406082,52.293900,-13.776575,40.418,29.945,3.793,9.7248,-17.0642,40.0000,44.5619,9.7992,-16.8837,47.3374,51.2047,59.869,72.677,16.234,-11.262,46.630,24.900,100682.30,-150.520
23609.957,-0.205078,0.165283,0.897949,-240.595413,40.870228,-34.045803,-0.185216,0.154755,0.935467,-242.213074,41.502678,-34.525780,40.459,3.421,8.413,31.7431,-12.2018,30.4587,45.6535,35.6346,-11.1836,36.4853,52.2118,17.424,18.240,-9.719,-4.824,42.280,24.900,100682.54,-150.541
23610.067,0.229736,-0.393066,1.047607,-222.595413,-77.908394,-38.167938,0.234146,-0.419356,1.076121,-224.214615,-77.277855,-38.647121,40.430,-21.239,-0.314,42.8440,-17.3395,12.2936,47.8268,48.2061,-17.1362,14.8129,53.2625,19.569,12.436,-34.060,-15.678,39.647,24.890,100683.11,-150.588
23610.187,0.203125,-0.831055,0.672607,-134.305344,-31.755726,19.282442,0.194496,-0.848636,0.700880,-135.923157,-31.123466,18.802544,40.456,-37.810,-4.169,44.6789,-18.5321,1.0092,48.3804,50.0297,-18.5587,1.2059,53.3746,20.352,15.862,-52.464,-17.005,42.276,24.890,100683.94,-150.657
23610.297,0.053711,-0.875244,0.375977,-131.267181,-31.374046,-0.595420,0.043288,-0.882191,0.407592,-132.884995,-30.741787,-1.075318,40.456,-52.682,-7.450,42.9358,-16.9725,-13.6697,48.1498,47.5267,-16.8444,-16.6042,53.0869,19.515,26.634,-68.855,-17.673,43.996,24.890,100684.67,-150.721
23610.417,0.333740,-0.880371,-0.075439,-214.122131,-13.007633,31.526718,0.322386,-0.885503,-0.040511,-215.740875,-12.376521,31.047297,40.439,-78.854,-9.156,34.7706,-17.2477,-26.4220,46.9532,37.4597,-17.2778,-32.2874,52.3854,24.761,44.788,-97.496,-14.350,47.086,24.890,100684.84,-150.736
23610.537,0.026367,-0.819092,-0.353271,-177.633591,-23.847328,33.908398,0.016216,-0.809480,-0.313432,-179.252014,-23.215834,33.428818,40.445,-100.579,-11.725,20.4587,-15.3211,-35.7798,43.9715,20.2247,-15.1913,-44.0385,50.7858,36.911,69.522,-120.966,-6.761,50.386,24.890,100684.45,-150.705
23610.657,0.024414,-0.840332,-0.700195,-99.664124,-27.496183,-25.587786,0.013040,-0.823172,-0.656960,-101.281311,-26.863157,-26.068003,40.468,-113.051,-14.664,7.2477,-12.4771,-38.3486,40.9734,4.5069,-12.0044,-47.5350,49.2341,69.422,94.610,-135.103,-4.122,56.777,24.890,100684.34,-150.694
23610.777,0.010010,-0.664795,-0.872559,-15.679389,-13.633588,24.137405,0.003279,-0.643439,-0.825768,-17.297665,-13.001902,23.657745,40.448,-115.665,-15.903,3.0275,-11.2844,-38.3486,40.0889,-0.4873,-10.6543,-47.6574,48.8363,92.619,102.864,-138.405,1.579,57.098,24.890,100683.84,-150.652
23610.897,-0.029297,-0.790771,-0.768311,151.419846,18.992367,-2.671756,-0.039400,-0.770599,-0.723637,149.802032,19.624626,-3.151654,40.456,-98.397,-13.234,5.5963,-10.6422,-38.8073,40.6274,2.5472,-9.8995,-48.1311,49.2046,75.570,91.701,-120.434,0.917,56.437,24.890,100683.77,-150.647
23611.007,0.054443,-0.955078,-0.328613,275.206116,32.427483,-7.145038,0.040501,-0.946843,-0.290480,273.586609,33.057640,-7.624063,40.424,-69.080,-9.453,23.3028,-12.4771,-35.1376,43.9698,23.6327,-11.8880,-43.1602,50.6224,26.704,61.674,-89.513,-1.203,52.888,24.900,100683.70,-150.641
23611.117,0.192871,-0.795898,0.270020,329.007629,18.076336,8.274809,0.184510,-0.804474,0.302850,327.389832,18.708595,7.794910,40.456,-33.792,-7.489,43.0275,-13.2110,-15.5046,47.6056,47.6030,-12.5121,-18.8028,52.6891,14.727,23.343,-52.096,-0.380,48.013,24.900,100683.14,-150.594
23611.227,0.089355,-0.306885,0.743164,316.992371,0.961832,-14.702291,0.095638,-0.322582,0.776324,315.373779,1.593136,-15.181791,40.442,0.425,-7.297,46.4220,-11.8349,0.1835,47.9072,52.1122,-10.8229,0.2938,53.2250,11.733,11.834,-14.986,-0.813,42.668,24.900,100683.56,-150.631
23611.337,0.157227,0.236572,1.130859,279.816803,-29.236641,-9.389313,0.179550,0.210759,1.164959,278.199615,-28.603615,-9.869530,40.468,30.617,-10.408,37.4312,-13.1193,24.8624,46.8118,42.1998,-12.2355,29.8809,53.1357,16.169,34.131,19.167,-4.616,38.832,24.900,100683.40,-150.615
23611.447,0.081787,0.633057,0.634521,276.793884,-26.961832,16.641222,0.114402,0.620251,0.677961,275.176697,-26.328806,16.161005,40.468,60.513,-13.180,16.5138,-13.8532,39.2661,44.7933,17.8430,-13.1395,46.6722,51.6654,36.368,72.617,50.317,-7.492,39.545,24.900,100683.40,-150.615
23611.557,0.136475,1.008057,0.559082,221.175568,-4.015267,10.946565,0.179543,0.995462,0.606684,219.557297,-3.383581,10.466905,40.448,84.148,-13.456,4.2202,-15.0459,40.9174,43.7998,3.3158,-14.5841,48.2905,50.5535,77.191,83.715,74.109,-7.961,43.939,24.900,100683.23,-150.599
23611.667,0.211670,0.967041,0.116455,173.496185,5.679389,-19.908398,0.252791,0.961868,0.167890,171.878693,6.312032,-20.388454,40.462,102.594,-12.797,-12.8440,-16.7890,37.2477,42.8279,-17.0308,-16.7208,43.3209,49.4604,135.526,105.758,93.638,-8.150,49.466,24.900,100683.06,-150.583
23611.777,0.101074,0.987061,-0.308350,229.679382,6.992366,-0.473282,0.141988,0.994214,-0.251803,228.061569,7.624626,-0.953181,40.456,127.213,-11.876,-20.2752,-16.2385,33.1193,42.0911,-25.9603,-16.1528,38.1011,48.8522,148.110,131.205,119.473,-12.095,54.007,24.900,100683.14,-150.594
23611.887,0.069336,0.945557,-0.516357,141.618317,-17.801527,10.076336,0.108701,0.958092,-0.457911,140.000198,-17.169651,9.596597,40.451,142.070,-13.606,-31.7431,-17.6147,18.4404,40.7179,-40.0071,-17.8872,19.9800,48.1635,155.911,183.209,133.096,-16.393,54.816,24.900,100683.63,-150.636
23612.007,0.096680,0.851562,-0.659668,2.106870,-8.198473,-0.793893,0.133137,0.866388,-0.600777,0.488595,-7.566787,-1.273553,40.448,141.781,-14.368,-34.1284,-18.2569,10.2752,40.0455,-43.0867,-18.6848,10.0224,48.0212,156.556,192.936,128.690,-19.789,58.445,24.890,100683.44,-150.620
23612.117,0.130127,0.928223,-0.480957,-143.099243,1.969466,18.290077,0.169072,0.938263,-0.423330,-144.716125,2.602874,17.809702,40.474,125.632,-13.987,-32.2018,-18.8991,16.3303,40.7531,-40.6230,-19.3831,17.4058,48.2586,154.492,175.080,108.612,-24.510,61.819,24.890,100684.01,-150.668
23612.237,0.026367,1.115479,-0.097900,-308.366425,59.694656,-3.893130,0.071277,1.120246,-0.041937,-309.984711,60.326344,-4.372789,40.448,88.504,-6.685,-27.6147,-19.7248,24.4037,41.7992,-34.9458,-20.2663,27.3119,48.7635,149.889,139.366,66.824,-24.060,72.822,24.890,100684.11,-150.673
23612.347,0.189209,0.836914,0.408447,-374.687012,2.320611,0.961832,0.227181,0.826020,0.455702,-376.304810,2.952870,0.481934,40.456,47.394,-6.503,-4.0367,-17.7064,39.7248,43.6792,-6.5229,-17.7120,46.5821,50.2609,110.217,100.499,26.610,-22.052,75.285,24.890,100684.18,-150.678
23612.457,0.047119,0.434326,0.910400,-253.221375,-4.763359,-8.045801,0.074618,0.416470,0.949217,-254.839493,-4.131482,-8.525540,40.451,19.447,-6.901,23.0275,-14.7706,35.9633,45.1863,25.4566,-14.1745,42.8687,51.8332,29.109,52.795,-0.589,-20.739,73.675,24.880,100684.42,-150.699
23612.567,0.243164,-0.258057,0.713867,-276.992371,-23.541985,-33.312977,0.250785,-0.277465,0.747083,-278.610321,-22.909916,-33.792797,40.454,-11.379,-9.582,32.3853,-15.0459,29.1743,46.1121,36.3389,-14.4684,34.9359,52.4439,21.710,13.812,-30.365,-25.357,70.368,24.880,100684.58,-150.715
23612.687,0.095947,-0.448730,0.504639,-54.534351,-37.282444,-5.022901,0.097798,-0.459508,0.538862,-56.151852,-36.649803,-5.502958,40.462,-18.565,-13.858,42.8440,-16.7890,11.5596,47.4458,48.1871,-16.5046,13.9275,52.8051,18.907,14.823,-36.458,-29.721,69.135,24.880,100684.66,-150.721
23612.797,0.280273,-0.312012,1.006104,141.129776,-4.167939,7.480916,0.286900,-0.338809,1.035596,139.512283,-3.535296,7.000858,40.462,-3.520,-14.257,41.6514,-16.6055,13.0275,46.6936,46.8195,-16.2928,15.6686,51.9906,19.188,20.337,-16.814,-29.494,65.864,24.880,100685.32,-150.779
23612.907,0.069824,0.001221,1.014404,61.236641,20.854961,30.992367,0.085288,-0.019678,1.047836,59.618984,21.487411,30.512388,40.459,2.957,-11.748,36.8807,-13.4862,22.0183,45.0208,41.4586,-12.6769,26.4203,50.7696,17.002,21.637,-7.893,-25.172,66.201,24.880,100685.48,-150.789
23613.017,0.101074,-0.134033,0.913086,7.725191,-27.435114,-46.000000,0.112542,-0.153676,0.946108,6.108622,-26.801323,-46.480537,40.480,3.372,-14.536,36.0550,-12.8440,23.3945,44.8580,40.5259,-11.9339,28.0639,50.7183,16.408,22.733,-3.116,-28.024,58.956,24.880,100685.98,-150.832
23613.127,1.999939,1.884277,1.999939,-175.832062,41.083969,-46.183205,2.070489,1.787995,2.032389,-177.448166,41.718334,-46.663979,40.489,-14.999,-10.496,35.5963,-16.7890,22.6606,45.4144,39.9353,-16.4932,27.1416,51.0247,22.441,14.799,-14.810,-27.135,49.823,24.880,100686.65,-150.890
23613.237,-0.191406,-0.021973,1.257324,-27.587786,24.778625,-60.000000,-0.176182,-0.040723,1.289239,-29.204199,25.412609,-60.480614,40.483,-17.883,-7.392,35.5046,-18.0734,21.8349,45.4311,39.7934,-17.9803,26.1330,50.8895,24.315,14.337,-12.245,-23.073,40.349,24.880,100686.98,-150.916
23613.347,-1.416992,-0.850586,-0.856934,35.175571,12.549619,-23.374046,-1.429062,-0.789164,-0.805420,33.558846,13.183219,-23.854502,40.477,-16.619,-4.788,32.8440,-19.1743,24.4037,45.1877,36.7116,-19.2544,29.1552,50.6803,27.676,16.659,-10.602,-18.728,38.328,24.880,100687.41,-150.953
23613.457,-0.111816,0.018555,1.034180,2.366412,-0.488550,0.335878,-0.095843,0.002385,1.068426,0.750154,0.145625,-0.144817,40.486,-16.203,-4.574,31.7431,-20.0000,25.0459,45.1101,35.4212,-20.2108,29.8947,50.5651,29.708,18.766,-9.036,-16.373,37.669,24.880,100687.15,-150.932
23613.567,-0.106934,0.098145,1.012695,1.419847,-0.717557,-4.030534,-0.088752,0.082329,1.047913,-0.195324,-0.082040,-4.511788,40.506,-15.810,-4.395,31.7431,-20.1835,24.9541,45.1410,35.4173,-20.4231,29.7828,50.5816,29.970,19.437,-7.163,-14.379,36.489,24.880,100686.98,-150.916
23613.677,-0.381836,0.077881,1.098389,6.442748,2.335878,-78.931297,-0.364096,0.068002,1.133811,4.826024,2.969478,-79.411751,40.477,-14.905,-3.631,31.2844,-21.1009,24.9541,45.2402,34.8679,-21.4847,29.7641,50.6287,31.640,21.885,-3.419,-11.587,27.270,24.880,100686.98,-150.916
23613.787,0.395752,0.139160,0.806152,0.763359,-2.183206,-158.427475,0.414763,0.113568,0.841551,-0.853210,-1.549415,-158.908005,40.480,-14.546,-4.246,24.5872,-29.7248,24.0367,45.4517,26.8488,-31.4837,28.4060,50.1895,49.543,44.019,0.187,-12.864,11.041,24.880,100687.32,-150.943
23613.897,-0.083984,-0.071777,1.059814,2.717557,-1.038168,-161.801529,-0.070512,-0.089322,1.092788,1.101454,-0.403801,-162.282303,40.489,-14.229,-4.131,18.3486,-34.0367,23.3945,45.1937,19.4087,-36.5021,27.4169,49.6063,62.000,59.611,0.967,-8.969,356.911,24.880,100687.39,-150.948
23614.007,0.283691,0.104248,0.750732,1.312977,-2.885496,-155.175568,0.301608,0.083020,0.786892,-0.302350,-2.250171,-155.656738,40.504,-13.857,-4.709,5.4128,-37.7982,21.1009,43.6262,3.9843,-40.9354,24.2282,47.7345,84.441,87.916,1.092,-7.509,344.739,24.880,100686.95,-150.911
23614.117,-0.181152,0.044189,1.251465,1.801527,-1.740458,-125.358780,-0.164071,0.025298,1.284035,0.185889,-1.105516,-125.839790,40.498,-13.537,-4.588,-6.0550,-36.0550,18.0734,40.7833,-9.6884,-39.0106,20.2239,44.9966,103.947,109.816,-0.263,-2.953,335.629,24.870,100686.70,-150.890
23614.227,0.038818,0.038330,0.796143,1.786260,-2.778626,-236.671753,0.054935,0.023041,0.832340,0.170311,-2.144068,-237.152603,40.492,-13.216,-4.803,-11.1009,-33.5780,16.8807,39.1876,-15.6895,-36.1894,18.6395,43.6264,113.439,119.953,-2.276,-0.651,313.353,24.870,100687.12,-150.927
23614.337,0.050293,0.081787,0.937988,2.778626,0.305344,11.877863,0.067892,0.063122,0.973084,1.162678,0.939902,11.397009,40.492,-12.752,-4.685,-19.8165,-25.7798,14.9541,35.7899,-26.0290,-27.2538,16.0823,40.9747,133.683,140.273,-4.877,2.441,314.448,24.870,100687.62,-150.969
23614.447,0.206787,-0.017822,0.705078,1.587786,0.580153,56.977100,0.221170,-0.035925,0.740886,-0.027696,1.215286,56.496006,40.501,-12.556,-4.793,-18.8073,-27.0642,14.5872,36.0413,-24.8522,-28.7317,15.6623,41.0908,130.859,137.153,-8.071,4.750,320.680,24.870,100687.53,-150.964
23614.557,-0.099121,-0.102539,1.084717,4.916030,0.748092,136.167938,-0.086474,-0.120203,1.117205,3.300549,1.383225,135.686844,40.501,-12.072,-4.460,-17.1560,-28.6239,14.4954,36.3836,-22.9075,-30.5218,15.5936,41.2250,126.889,132.686,-9.456,11.003,336.141,24.870,100687.60,-150.969
23614.667,-0.519043,0.146729,1.271240,7.083970,5.419847,140.122131,-0.499061,0.137028,1.306183,5.468798,6.055365,139.640884,40.506,-11.121,-3.301,-10.2752,-34.0367,15.5046,38.7875,-14.7557,-36.7206,16.9969,43.0700,111.892,116.176,-7.215,18.548,354.369,24.870,100687.70,-150.974
23614.777,-0.612549,-0.007324,1.396729,2.687023,0.137405,31.267176,-0.596697,-0.017140,1.429316,1.071230,0.772154,30.786242,40.495,-10.797,-2.699,-2.2936,-37.0642,17.6147,41.1010,-5.2507,-40.1541,19.7781,45.0677,97.450,100.330,-8.411,22.263,1.431,24.870,100687.36,-150.948
23614.887,0.010986,0.060547,0.875244,1.801527,0.885496,37.862595,0.027870,0.044345,0.910968,0.186822,1.521589,37.381100,40.515,-10.505,-2.516,-1.2844,-37.2477,17.9817,41.3809,-4.0446,-40.3577,20.2520,45.3349,95.723,98.281,-8.409,22.967,9.381,24.870,100687.12,-150.927
23614.997,-0.026611,-0.087402,0.992432,0.916031,0.137405,44.106869,-0.013696,-0.105123,1.025683,-0.699296,0.772730,43.625694,40.504,-10.487,-2.367,0.3670,-37.5229,18.4404,41.8109,-2.0752,-40.6627,20.8561,45.7465,92.922,95.095,-8.684,23.611,17.699,24.870,100687.02,-150.921
23615.107,0.100342,0.114502,1.181396,1.694656,-20.458015,192.931305,0.119306,0.089167,1.214055,0.079330,-19.822691,192.450134,40.504,-10.185,-4.569,6.7890,-37.5229,20.0917,43.1015,5.5863,-40.6143,23.0501,47.0323,82.168,84.923,-0.293,21.355,43.518,24.880,100686.62,-150.884
23615.217,-1.409424,0.242432,1.828857,-1.709924,2.564885,275.343506,-1.385815,0.245961,1.863127,-3.324939,3.200594,274.862183,40.509,-10.189,-3.404,14.0367,-36.1468,21.4679,44.3226,14.2265,-38.9740,24.9432,48.4100,69.947,70.032,11.359,20.769,76.894,24.880,100686.05,-150.837
23615.327,0.126465,0.046387,0.865967,1.877863,-0.030534,27.160305,0.142942,0.027106,0.901108,0.263624,0.606135,26.678572,40.524,-9.923,-3.451,26.4220,-27.7064,23.6697,45.0114,29.0249,-29.1448,28.0280,49.7738,45.118,41.481,11.747,16.553,76.460,24.880,100686.08,-150.842
