t_s,ax_raw_g,ay_raw_g,az_raw_g,gx_raw_dps,gy_raw_dps,gz_raw_dps,ax_g,ay_g,az_g,gx_dps,gy_dps,gz_dps,mpu_temp_c,roll_deg,pitch_deg,bx_uT,by_uT,bz_uT,mag_uT,bx_cal_uT,by_cal_uT,bz_cal_uT,mag_cal_uT,yaw_flat_deg,yaw_tilt_deg,mahony_roll_deg,mahony_pitch_deg,mahony_yaw_deg,bmp_temp_c,pressure_pa,altitude_m
495.637,0.05957,0.339111,-1.015869,-3.022901,2.778626,-2.854962,0.08092,0.36251,-0.958087,-4.472157,3.623879,-3.427169,43.477,163.705,6.041,-16.9725,-38.3486,-21.6514,47.196,-17.9444,-78.3829,-81.5728,114.5426,102.895,263.074,159.804,-2.553,259.868,26.86,100572.35,-139.935
495.747,0.045654,0.381836,-1.022461,-25.465649,1.007634,-10.793893,0.068197,0.405787,-0.964131,-26.914387,1.853557,-11.366401,43.486,160.673,6.045,-17.5229,-38.4404,-21.2844,47.3048,-18.5292,-78.4503,-81.2075,114.4223,103.289,262.608,156.491,-2.353,260.996,26.86,100571.68,-139.877
495.857,0.012207,0.311523,-1.016846,-0.778626,-4.259542,0.946565,0.032772,0.336277,-0.9591,-2.226497,-3.412501,0.373555,43.501,160.434,5.52,-17.7064,-38.3486,-21.3761,47.34,-18.7188,-78.3766,-81.2892,114.4606,103.432,262.231,156.699,-1.891,260.592,26.87,100571.27,-139.845
495.967,-0.057617,0.36499,-0.890625,-56.961834,-21.328245,-17.145039,-0.035322,0.389014,-0.83334,-58.410053,-20.481651,-17.717848,43.495,154.027,3.245,-18.3486,-37.4312,-21.7431,47.0163,-19.3739,-77.5929,-81.5863,114.2468,104.019,260.784,150.069,1.503,261.116,26.87,100570.88,-139.813
496.087,0.137939,0.493408,-0.816162,-18.030535,-30.778625,3.969466,0.16401,0.510321,-0.759319,-19.478752,-29.932032,3.396657,43.495,151.578,-0.543,-22.2018,-35.6881,-20.0917,46.5858,-23.4211,-76.0035,-79.795,112.6602,107.127,257.238,147.153,3.06,258.566,26.87,100570.47,-139.776
496.197,-0.041016,0.599609,-0.94165,-85.847328,-41.0229,57.389313,-0.012189,0.624347,-0.881639,-87.296066,-40.176975,56.816803,43.486,142.029,-4.85,-22.9358,-35.8716,-19.1743,46.6955,-24.2093,-76.1231,-78.8905,112.2699,107.642,256.819,136.935,2.447,250.892,26.87,100570.12,-139.75
496.317,-0.442383,0.939697,-0.605957,-29.770992,-70.183205,-11.374045,-0.403388,0.968679,-0.544242,-31.219557,-69.337059,-11.946653,43.489,137.904,-12.508,-22.7523,-38.5321,-14.4954,47.0373,-24.134,-78.2112,-74.446,110.642,107.149,257.379,130.678,11.315,246.453,26.87,100569.8,-139.718
496.437,-0.105225,0.781494,-0.741943,35.419846,68.473282,-4.045802,-0.07091,0.803799,-0.681934,33.971973,69.32032,-4.618811,43.501,141.747,-4.029,-22.4771,-37.4312,-14.3119,45.9472,-23.8346,-77.2218,-74.2077,109.7181,107.153,257.049,135.552,5.157,254.095,26.87,100570.22,-139.755
496.547,-0.031494,0.744629,-0.616943,19.221375,39.435116,-47.526718,0.002011,0.762128,-0.558932,17.77177,40.279922,-48.098724,43.471,143.353,0.391,-20.8257,-37.8899,-13.1193,45.1826,-22.1302,-77.5391,-73.0907,108.8316,105.929,258.234,137.097,5.029,261.351,26.87,100570.3,-139.76
496.657,0.056152,0.54834,-1.052979,139.832062,32.473282,-44.961834,0.083341,0.572711,-0.992767,138.383331,33.319206,-45.534344,43.486,158.406,3.892,-21.7431,-36.6972,-12.7523,44.5205,-23.0834,-76.4732,-72.6457,107.974,106.796,258.247,154.086,3.917,267.095,26.87,100570.03,-139.739
496.777,-0.05249,0.562012,-0.758057,-42.213741,2.167939,37.984734,-0.024395,0.583093,-0.700257,-43.663345,3.012745,37.412727,43.471,152.908,4.199,-18.7156,-35.3211,-17.4312,43.6085,-19.8083,-75.482,-77.2205,109.7858,104.704,260.441,147.023,1.337,262.549,26.86,100569.51,-139.697
496.887,-0.236572,0.479736,-0.9104,98.519081,-15.083969,35.34351,-0.211089,0.509302,-0.850959,97.070518,-14.237823,34.770901,43.489,163.296,2.821,-18.4404,-35.7798,-16.2385,43.4043,-19.5468,-75.8169,-76.0791,109.171,104.457,259.795,157.758,2.201,258.279,26.86,100569.19,-139.671
497.007,-0.070312,0.555664,-0.969482,21.61832,61.35878,-8.366412,-0.042778,0.581819,-0.909472,20.168198,62.202915,-8.938119,43.462,165.35,10.125,-15.2294,-35.2294,-19.5413,43.0686,-16.1143,-75.4765,-79.3515,110.6935,102.052,266.482,158.876,-4.478,262.329,26.85,100568.49,-139.612
497.127,-0.156738,0.536133,-0.973145,14.534351,-15.358779,-11.816793,-0.129769,0.564811,-0.91288,13.084748,-14.513973,-12.388801,43.471,166.547,8.353,-16.3303,-35.1376,-18.4404,42.9113,-17.287,-75.3465,-78.2445,109.9915,102.922,264.633,159.106,-0.787,262.77,26.85,100568.64,-139.623
497.247,0.040527,0.232178,-0.474365,125.297707,31.358778,63.129772,0.059831,0.244373,-0.423139,123.849144,32.204926,62.557163,43.489,180.78,11.834,-15.6881,-34.6789,-19.2661,42.6606,-16.5931,-74.979,-79.0414,110.2031,102.479,270.137,173.243,-6.867,256.128,26.84,100567.72,-139.544
497.367,0.11792,0.050781,-0.783691,159.70993,95.450378,34.580154,0.131554,0.067405,-0.731385,158.261017,96.296082,34.007748,43.483,199.272,22.72,-7.8899,-39.9083,-17.8899,44.4406,-8.508,-79.4342,-78.1254,111.7397,96.114,302.016,-166.67,-18.57,251.482,26.84,100567.02,-139.486
497.477,0.20874,-0.110107,-0.859375,37.893131,28.732824,32.763359,0.217705,-0.094479,-0.808271,36.442661,29.576513,32.191853,43.456,195.748,25.154,-0.5505,-43.3945,-15.5046,46.0845,-0.8995,-82.2932,-76.1097,112.0967,90.626,304.218,-162.078,-19.996,246.949,26.83,100566.41,-139.433
497.587,0.285645,-0.148682,-0.993652,-0.70229,6.961832,25.389313,0.293286,-0.132345,-0.941892,-2.152066,7.806415,24.817406,43.468,188.161,25.15,0.9174,-44.0367,-14.5872,46.3989,0.615,-82.7912,-75.2705,111.8946,89.574,297.574,-162.576,-19.362,244.08,26.82,100565.98,-139.401
497.697,0.340088,-0.219482,-1.048828,18.580153,28.519083,0.977099,0.345637,-0.203522,-0.997439,17.129511,29.362549,0.405693,43.454,182.875,27.437,1.7431,-44.4037,-14.3119,46.6857,1.4712,-83.0901,-75.0356,111.9663,88.986,295.482,-161.006,-22.251,243.107,26.81,100565.7,-139.375
497.807,0.438965,-0.242188,-0.911621,34.885498,50.091602,-11.480916,0.444128,-0.232005,-0.862336,33.434856,50.93507,-12.052322,43.454,179.523,31.85,1.7431,-45.5046,-11.5596,46.9822,1.4082,-83.9085,-72.3927,110.8302,89.038,294.789,-157.54,-28.182,242.292,26.81,100565.45,-139.354
497.917,0.516602,-0.213379,-0.82959,4.580153,-5.954198,2.503817,0.522732,-0.207161,-0.781239,3.129165,-5.111178,1.93261,43.448,172.967,30.004,1.4679,-46.055,-10.0,47.1511,1.0849,-84.3108,-70.886,110.1559,89.263,288.531,-158.476,-27.51,242.33,26.8,100565.5,-139.359
498.027,0.394775,-0.205566,-0.854492,59.419846,-6.198473,-14.38168,0.401071,-0.195353,-0.805236,57.969376,-5.354784,-14.953186,43.456,172.43,28.31,1.5596,-45.5963,-11.1009,46.9541,1.2065,-83.966,-71.9438,110.5787,89.177,287.728,-154.318,-26.909,244.395,26.79,100564.98,-139.317
498.137,0.443359,-0.235352,-0.809814,112.732826,-29.19084,-27.633587,0.448899,-0.227492,-0.761538,111.281494,-28.348267,-28.204594,43.442,177.709,24.099,2.2018,-45.0459,-12.5688,46.8183,1.913,-83.5538,-73.3668,111.2096,88.688,289.331,-145.83,-25.248,249.199,26.78,100565.2,-139.332
498.257,0.498047,-0.413818,-0.876953,114.564888,-24.671755,-39.068703,0.498433,-0.406121,-0.829969,113.113899,-23.828735,-39.639908,43.448,184.379,20.248,1.8349,-44.3119,-14.1284,46.546,1.5653,-82.9971,-74.8516,111.7754,88.92,290.947,-137.168,-24.942,255.364,26.77,100564.42,-139.269
498.377,0.320557,-0.631836,-0.709473,76.671753,-19.007633,15.40458,0.315076,-0.622801,-0.665506,75.22007,-18.165504,14.833774,43.436,186.8,17.325,2.1101,-43.6697,-16.2385,46.6389,1.8996,-82.545,-76.8942,112.8273,88.682,290.652,-130.569,-19.569,255.768,26.76,100564.47,-139.269
498.487,0.558594,-1.019043,-0.52832,91.190842,75.343513,40.9771,0.54253,-1.02081,-0.491102,89.73951,76.186089,40.406094,43.442,190.423,24.68,6.2385,-43.8532,-17.156,47.5011,6.2422,-82.7071,-77.8799,113.7748,85.684,303.136,-117.888,-20.02,245.533,26.75,100563.95,-139.227
498.597,0.329102,-1.028809,-0.461182,7.435114,-15.450381,33.541985,0.312863,-1.025522,-0.423677,5.982916,-14.608923,32.971478,43.427,185.011,22.296,11.6514,-44.2202,-15.4128,48.257,11.8819,-82.8636,-76.2833,113.2551,81.84,299.292,-120.045,-15.081,245.47,26.74,100563.41,-139.184
498.707,0.312744,-0.871094,-0.5625,-21.908398,7.114504,18.427481,0.300774,-0.865098,-0.52234,-23.360941,7.955517,17.857174,43.421,176.37,22.377,12.3853,-43.3028,-16.9725,48.131,12.6909,-82.1303,-77.7773,113.8233,81.216,294.34,-125.259,-13.857,244.037,26.73,100563.56,-139.195
498.817,0.352783,-0.766602,-0.288818,29.770992,34.427483,-30.274809,0.344258,-0.767621,-0.250666,28.317757,35.267605,-30.844717,43.409,173.733,25.269,13.3945,-43.7615,-15.5963,48.35,13.7187,-82.4454,-76.4685,113.2823,80.553,294.426,-121.808,-19.636,242.431,26.72,100563.22,-139.169
498.937,0.379395,-0.760498,-0.321777,18.916031,-3.160305,46.030533,0.370984,-0.761558,-0.283349,17.463833,-2.318846,45.460026,43.427,170.104,24.0,11.9266,-44.7706,-13.8532,48.3587,12.1358,-83.2589,-74.7864,112.5714,81.707,290.373,-120.596,-14.834,239.734,26.71,100562.73,-139.126
499.047,0.27124,-0.622314,-0.264648,19.251909,14.229008,29.068703,0.266823,-0.621494,-0.224965,17.800056,15.070912,28.497995,43.433,166.423,24.705,14.3119,-44.3119,-13.3945,48.454,14.6345,-82.7958,-74.3517,112.2385,79.976,289.861,-119.247,-13.713,236.685,26.7,100562.39,-139.095
499.167,0.359619,-0.968018,-0.567139,-37.145039,-12.564885,1.419847,0.344909,-0.963285,-0.528091,-38.597408,-11.723649,0.84944,43.424,156.181,22.484,18.6239,-42.9358,-13.7615,48.7822,19.1797,-81.5423,-74.7105,112.2438,76.764,286.616,-126.995,-13.726,238.29,26.69,100562.18,-139.079
499.287,0.400635,-0.671875,-0.466064,5.282443,43.129772,-14.900764,0.394468,-0.670387,-0.425382,3.828862,43.969448,-15.470472,43.404,151.059,26.676,15.6881,-44.0367,-12.844,48.4801,16.0711,-82.503,-73.8193,111.8674,78.977,283.264,-126.43,-19.687,235.121,26.68,100562.5,-139.105
499.397,0.492432,-0.736572,-0.445801,-150.687027,-7.19084,-2.0,0.484483,-0.738148,-0.406386,-152.140442,-6.35094,-2.569808,43.406,129.259,24.86,13.4862,-45.1376,-11.0092,48.3786,13.7158,-83.4019,-72.0392,111.057,80.661,272.354,-144.266,-19.986,235.949,26.67,100562.36,-139.095
499.517,0.340576,-0.573975,-0.872559,-162.198471,-131.328247,-4.015267,0.336437,-0.561962,-0.826436,-163.652222,-130.4888,-4.584877,43.401,104.514,8.647,11.1927,-44.3119,-14.2202,47.8648,11.3786,-82.8828,-75.108,112.4288,82.183,271.236,-165.825,-5.762,242.972,26.65,100562.48,-139.105
499.637,-0.272705,-0.479248,-1.297119,-18.38168,-6.91603,146.824432,-0.274987,-0.440632,-1.242807,-19.835951,-6.077245,146.255127,43.392,96.882,7.994,3.4862,-37.4312,-25.0459,45.1724,3.5786,-77.5022,-85.2208,115.2475,87.356,266.503,-166.448,0.261,226.652,26.63,100562.43,-139.1
499.747,-0.123535,-0.427979,-1.322266,-80.0,-74.427483,-12.091603,-0.124402,-0.393032,-1.267895,-81.454102,-73.58847,-12.661014,43.395,82.908,0.008,6.789,-37.0642,-25.5046,45.5009,7.0544,-77.161,-85.7095,115.5409,84.776,275.326,-174.067,6.441,230.625,26.62,100562.64,-139.116
499.867,0.22998,-0.099365,-1.164795,-304.198486,81.496185,17.541985,0.238702,-0.077733,-1.110523,-305.652924,82.334747,16.972775,43.389,41.786,9.448,-2.2018,-36.9725,-23.945,44.1041,-2.399,-77.1057,-84.0114,114.0568,91.782,175.899,150.697,-6.821,233.614,26.61,100562.94,-139.142
499.977,0.286377,0.133057,-0.346924,-10.748092,63.908398,32.70229,0.303133,0.13549,-0.299131,-12.203053,64.746292,32.133377,43.38,42.748,15.384,-6.1468,-39.8165,-18.8073,44.4618,-6.6629,-79.383,-79.053,112.2293,94.798,172.686,149.614,-19.165,237.127,26.6,100562.76,-139.126
500.087,0.245361,0.506592,-1.325195,-96.625954,21.358778,40.274811,0.270898,0.531467,-1.263456,-98.080742,22.196896,39.705799,43.383,34.463,17.246,-6.422,-42.1101,-14.0367,44.8501,-7.0655,-81.1466,-74.4892,110.3781,94.976,147.308,140.659,-23.081,237.037,26.59,100562.38,-139.095
500.197,0.266846,0.486084,-0.929932,-132.580154,10.824428,-12.366412,0.292516,0.501798,-0.872585,-134.034592,11.662992,-12.935623,43.389,22.327,17.834,-7.4312,-43.1193,-10.367,44.9663,-8.2017,-81.8443,-70.9213,108.6075,95.723,127.502,126.334,-21.914,241.518,26.58,100562.36,-139.095
500.317,0.259033,0.522949,-0.447266,-106.167938,-25.893129,10.580153,0.286611,0.528464,-0.394523,-107.623245,-25.055677,10.011439,43.374,11.759,14.061,-10.2752,-42.844,-6.789,44.5789,-11.2437,-81.4327,-67.3377,106.2642,97.861,115.128,114.595,-20.513,241.059,26.57,100562.17,-139.079
500.437,0.215088,0.822998,-0.361328,-130.0,-32.824429,-6.442748,0.251285,0.828006,-0.306359,-131.455139,-31.986755,-7.01156,43.377,-1.73,9.701,-11.1927,-42.844,-5.1376,44.5789,-12.235,-81.3502,-65.698,105.2796,98.553,105.251,99.378,-16.208,240.298,26.56,100561.89,-139.058
500.557,0.030029,0.949707,-0.222656,-205.557251,-70.442749,8.21374,0.070036,0.957009,-0.167027,-207.01445,-69.607742,7.646121,43.342,-24.042,1.238,-13.4862,-42.2936,-1.5596,44.4191,-14.6963,-80.6877,-62.1086,102.8784,100.323,98.734,76.928,-13.736,233.243,26.56,100561.97,-139.063
500.667,0.206543,0.904053,0.476074,-62.045803,29.923664,-8.0,0.246533,0.891229,0.523198,-63.500938,30.761337,-8.568812,43.377,-29.214,4.261,-14.4954,-42.0183,0.7339,44.4544,-15.7917,-80.326,-59.8202,101.3908,101.122,99.554,67.099,-9.987,237.332,26.55,100561.59,-139.031
500.777,0.24707,0.903076,0.269043,12.122137,86.351143,-28.091602,0.286664,0.893578,0.318112,10.666485,87.188148,-28.660116,43.368,-26.072,13.239,-14.8624,-42.0183,4.2202,44.7688,-16.2384,-80.1318,-56.3866,99.3189,101.456,101.304,67.531,-3.404,245.121,26.54,100561.58,-139.026
500.887,-0.068604,1.168457,0.316406,-23.251909,34.595421,20.885496,-0.021462,1.16698,0.369038,-24.707561,35.432426,20.316982,43.368,-26.765,16.814,-15.9633,-40.6422,10.367,44.8786,-17.4843,-78.576,-50.2459,94.8922,102.545,101.856,65.213,-3.632,249.491,26.53,100561.45,-139.021
500.997,0.461914,0.612305,0.476318,-85.541985,-54.488548,19.725191,0.493692,0.592132,0.519413,-86.997116,-53.650875,19.15638,43.377,-34.633,10.052,-18.4404,-38.3486,12.7523,44.4217,-20.0945,-76.4394,-47.7262,92.3285,104.729,101.954,55.062,-11.89,245.672,26.52,100561.37,-139.01
501.107,-0.171631,0.739014,0.643066,-13.816793,1.725191,3.572519,-0.136031,0.733247,0.688632,-15.2721,2.562642,3.003806,43.374,-34.651,10.281,-15.8716,-39.8165,13.945,45.0746,-17.4411,-77.6391,-46.6831,92.2569,102.661,100.119,53.229,-9.608,246.074,26.51,100561.25,-138.999
501.217,0.112793,0.685303,0.944092,-187.2061,-124.335876,13.114504,0.147442,0.664944,0.984687,-188.662277,-123.499535,12.546288,43.359,-53.614,-3.378,-14.2202,-40.5505,14.6789,45.4095,-15.732,-78.2264,-46.0328,92.1189,101.371,102.043,34.12,-19.711,237.621,26.51,100561.42,-139.015
501.337,0.174072,0.901855,1.460449,123.190842,-37.648853,-7.251908,0.215767,0.868672,1.497511,121.734154,-36.813179,-7.819826,43.351,-37.624,-7.782,-11.5596,-41.9266,15.0459,46.02,-12.9665,-79.3908,-45.7978,92.566,99.276,99.068,54.367,-17.955,232.6,26.5,100561.14,-138.994
501.447,0.440918,0.444824,0.753906,-156.122131,-5.480916,152.351151,0.468466,0.419187,0.7926,-157.578476,-4.644798,151.783035,43.356,-53.301,-8.679,-1.4679,-44.8624,15.5963,47.5188,-2.4326,-81.8316,-45.6034,93.7123,91.703,95.476,31.918,-28.003,245.304,26.5,100562.05,-139.068
501.557,0.309814,0.208008,1.122314,-170.854965,44.809162,140.870224,0.33133,0.178042,1.15551,-172.313034,45.643059,140.303101,43.327,-70.636,-3.901,7.7064,-44.2202,17.6147,48.2192,7.159,-81.0302,-43.7456,92.3624,84.951,87.54,8.712,-24.269,261.623,26.49,100562.3,-139.089
501.667,-0.058594,-0.240967,1.119629,-118.152672,46.488548,8.961832,-0.049787,-0.260583,1.150223,-119.610222,47.323112,8.394411,43.336,-82.372,1.326,20.9174,-40.4587,17.7982,48.9001,21.0556,-77.5181,-43.5853,91.3897,74.804,67.009,-2.009,-14.811,263.285,26.49,100562.61,-139.116
501.777,0.068848,-0.426514,1.085205,-147.70993,93.618324,-93.816795,0.072367,-0.449065,1.113759,-149.166611,94.453995,-94.384712,43.351,-97.244,11.413,23.3028,-39.633,17.3395,49.1371,23.5753,-76.7822,-44.0315,91.5974,72.931,40.877,-14.232,-3.769,252.285,26.48,100562.32,-139.089
501.887,-0.121338,-0.698486,1.044922,-153.43512,93.389313,-96.534348,-0.125584,-0.714868,1.072145,-154.894043,94.222099,-97.100975,43.312,-112.671,21.453,24.8624,-39.4495,16.3303,49.4073,25.2309,-76.6572,-45.0408,92.4208,71.782,12.171,-30.326,3.579,238.359,26.47,100562.5,-139.105
501.997,-0.212158,-0.958984,0.903564,-214.931305,36.030533,-81.068703,-0.224019,-0.969826,0.93015,-216.390747,36.862656,-81.635033,43.304,-134.667,25.187,24.6789,-41.6514,12.0183,49.8831,25.0869,-78.8564,-49.402,96.3756,72.352,341.69,-55.254,0.975,227.28,26.47,100562.3,-139.089
502.117,0.365234,-0.840332,0.309814,-246.274811,-18.030535,-98.687019,0.355705,-0.854671,0.340994,-247.735809,-17.200403,-99.252457,43.277,-162.475,22.238,21.5596,-44.6789,6.055,49.9768,21.8836,-81.9189,-55.3815,101.2754,75.043,308.902,-88.791,-15.444,224.168,26.46,100562.19,-139.079
502.237,0.433594,-0.577881,-0.407471,-351.419861,-50.030533,-89.374046,0.430188,-0.578561,-0.366638,-352.878784,-49.197742,-89.940674,43.312,-203.168,15.365,18.0734,-46.1468,0.2752,49.5606,18.3122,-83.5938,-61.0851,105.1411,77.644,283.287,-141.245,-25.439,236.09,26.45,100561.44,-139.015
502.357,0.39624,0.043701,-0.819336,-341.70993,-74.076332,-62.106869,0.409635,0.0532,-0.768033,-343.169189,-73.243988,-62.673298,43.306,-235.942,5.884,5.2294,-46.789,-6.9725,47.5938,4.9657,-84.7403,-68.0185,108.7755,86.646,270.909,170.861,-18.864,247.145,26.45,100560.81,-138.962
502.477,0.296631,0.370361,-0.768066,-224.656494,-15.847328,-55.633587,0.319329,0.381691,-0.713658,-226.116287,-15.015647,-56.199718,43.298,-254.777,3.57,-6.2385,-44.6789,-7.156,45.6764,-7.0282,-83.0278,-67.8748,107.4709,94.838,262.887,140.66,-14.999,254.184,26.44,100560.45,-138.936
502.597,0.063477,0.857422,-0.471191,-71.206108,25.541985,-92.595421,0.100435,0.869116,-0.41404,-72.669334,26.369242,-93.159576,43.239,-255.918,6.48,-14.5872,-42.1101,-1.0092,44.5765,-15.8581,-80.5079,-61.5374,102.5663,101.143,253.901,127.051,-8.006,265.847,26.43,100559.53,-138.857
502.717,-0.22168,1.138184,-0.430908,91.190842,79.694656,-30.396946,-0.176749,1.157192,-0.370114,89.727959,80.522354,-30.9613,43.245,-238.094,15.985,-21.9266,-36.8807,2.6606,42.9889,-23.5519,-75.7589,-57.5013,97.9822,107.269,250.204,134.036,-9.821,275.212,26.43,100558.75,-138.788
502.837,0.151855,0.728271,-0.770264,195.465652,185.984726,-3.29771,0.184639,0.743879,-0.711682,194.00415,186.814194,-3.862854,43.268,-207.84,37.433,-21.1009,-37.2477,0.0917,42.8094,-22.6452,-76.2201,-60.0621,99.6482,106.547,265.605,152.811,-27.139,287.207,26.42,100557.83,-138.714
502.957,0.272461,0.255615,-1.029541,65.312981,-84.870232,118.076332,0.291448,0.273243,-0.973425,63.851303,-84.040985,117.511284,43.265,-192.889,26.48,-16.789,-40.2752,-2.2018,43.69,-18.1221,-78.9783,-62.5661,102.3743,102.923,271.964,168.832,-20.149,265.502,26.41,100557.64,-138.698
503.077,0.268311,-0.013672,-1.216064,163.984726,4.534351,-1.618321,0.279361,0.008011,-1.16061,162.522354,5.362714,-2.182971,43.254,-166.326,26.311,-7.8899,-42.9358,-10.367,44.8688,-8.6804,-81.6876,-70.9027,108.5145,96.066,296.572,-170.845,-19.291,264.555,26.41,100557.18,-138.656
503.187,0.481201,0.044922,-0.167725,168.900757,-2.091603,53.007633,0.495809,0.037926,-0.123555,167.438217,-1.263462,52.443081,43.251,-141.691,24.141,-3.6697,-43.1193,-13.1193,45.2201,-4.2089,-81.9532,-73.6937,110.2942,92.94,335.351,-151.343,-21.351,257.441,26.4,100557.27,-138.667
503.307,0.418213,-0.410156,-0.88916,125.618324,49.954197,-2.641221,0.418674,-0.399929,-0.84164,124.154068,50.780128,-3.204788,43.221,-127.348,29.146,1.8349,-44.6789,-12.2018,46.3514,1.5264,-83.2124,-72.9786,110.691,88.949,7.785,-136.306,-25.41,253.651,26.39,100557.48,-138.682
503.417,0.365723,-0.486816,-0.622314,198.091599,17.206106,11.541985,0.364495,-0.480896,-0.578055,196.628891,18.034027,10.977531,43.248,-106.41,29.99,4.0367,-44.8624,-12.2018,46.667,3.8327,-83.3468,-73.0281,110.8805,87.367,40.95,-116.276,-24.101,251.532,26.38,100557.39,-138.677
503.527,0.659668,-0.631836,-0.2771,80.824425,20.213741,-14.778625,0.654993,-0.641765,-0.239199,79.361198,21.040998,-15.342783,43.239,-97.935,30.784,7.6147,-45.2294,-11.6514,47.3226,7.5697,-83.5949,-72.5715,110.9596,84.826,48.169,-110.398,-27.564,250.282,26.38,100557.27,-138.667
503.637,0.627686,-0.83374,-0.429199,153.847336,24.122137,-17.007633,0.617036,-0.839545,-0.391533,152.385147,24.95072,-17.572382,43.256,-81.85,32.184,9.7248,-45.9633,-9.1743,47.8682,9.7288,-84.0769,-70.2158,109.9719,83.399,59.867,-97.911,-29.828,248.965,26.37,100557.69,-138.704
503.747,0.555176,-0.665283,-0.206299,85.877861,-15.572519,19.908398,0.549676,-0.673791,-0.168967,84.415321,-14.744378,19.343845,43.251,-73.195,29.184,8.3486,-46.1468,-8.6239,47.6822,8.2738,-84.2257,-69.6607,109.6131,84.39,68.034,-96.219,-27.854,251.825,26.36,100557.73,-138.704
503.857,0.439453,-0.649658,0.178223,137.770996,-3.328244,20.229008,0.435075,-0.663191,0.212267,136.308289,-2.500324,19.664555,43.248,-58.481,27.691,12.1101,-45.6881,-9.1743,48.1479,12.2333,-83.8025,-70.2424,110.0296,81.695,75.422,-85.295,-25.912,252.161,26.35,100557.78,-138.709
503.967,0.379395,-0.832031,0.26709,168.625961,83.511452,-42.458015,0.370024,-0.845846,0.298726,167.163086,84.339149,-43.022369,43.245,-40.703,35.781,14.0367,-46.422,-4.4037,48.6973,14.1593,-84.1561,-65.6287,107.6562,80.449,82.262,-66.903,-28.096,241.37,26.35,100558.45,-138.767
504.077,0.105957,-0.207031,0.4375,186.732819,130.702286,45.908398,0.114509,-0.216557,0.474716,185.26976,131.52977,45.344143,43.242,-20.409,48.995,16.5138,-46.2385,4.4954,49.3043,16.6008,-83.4543,-56.914,102.369,78.75,94.316,-44.673,-15.76,229.912,26.34,100558.44,-138.767
504.187,0.343994,-0.348877,0.974121,250.152664,100.122139,30.290077,0.349528,-0.376803,1.003289,248.689957,100.950058,29.725624,43.248,6.399,58.537,13.4862,-42.4771,20.1835,48.924,13.1958,-79.2654,-41.2235,90.3134,80.548,115.633,-18.357,-5.88,223.669,26.34,100558.65,-138.783
504.297,0.041748,0.24292,1.24585,190.061066,-26.793894,42.213741,0.064448,0.217898,1.279361,188.596634,-25.968182,41.650272,43.218,26.795,54.51,4.3119,-39.633,26.6055,47.9293,3.4988,-76.4964,-34.5852,84.0243,87.381,134.168,5.533,-6.502,224.117,26.33,100558.56,-138.778
504.407,-0.654053,0.393555,1.431152,110.702293,264.274811,-3.740458,-0.626828,0.384312,1.467467,109.237694,265.100311,-4.303828,43.215,38.328,82.446,-0.9174,-39.9083,25.7798,47.5196,-1.973,-76.8542,-35.3197,84.6046,91.471,152.888,23.231,26.216,227.734,26.32,100559.04,-138.814
504.517,-0.33374,0.763428,0.772461,165.618317,13.969465,25.19084,-0.297233,0.75947,0.817683,164.154572,14.796061,24.626978,43.23,56.116,82.691,-16.055,-30.4587,28.9908,45.0107,-17.7811,-68.4919,-31.3553,77.3981,104.553,170.913,49.449,25.271,229.768,26.32,100559.12,-138.82
504.627,-0.203613,1.142334,0.631348,285.832062,116.351143,82.290077,-0.156654,1.137868,0.681098,284.367981,117.177299,81.72641,43.224,86.83,93.804,-23.3028,-33.7615,15.8716,43.9859,-25.1895,-72.2592,-44.3118,88.4276,109.219,208.949,89.748,19.018,243.752,26.31,100559.69,-138.867
504.737,0.115479,1.085693,-0.239502,154.519089,47.526718,75.099236,0.159301,1.090984,-0.182779,153.055008,48.352871,74.535568,43.224,103.583,96.976,-23.211,-35.5963,11.6514,44.0636,-25.0418,-74.1245,-48.5667,92.0884,108.667,228.506,108.965,6.733,246.582,26.31,100559.41,-138.846
504.847,0.207031,0.922607,-0.358887,116.763359,47.587788,38.091602,0.246044,0.927826,-0.302939,115.297386,48.411514,37.529018,43.192,116.102,99.972,-20.2752,-38.8991,3.6697,44.0192,-21.8641,-77.4686,-56.6536,98.433,105.761,244.689,121.55,-1.304,249.661,26.3,100559.66,-138.867
504.957,0.284912,0.9021,-0.624023,103.404579,27.67939,27.221375,0.322876,0.910834,-0.565894,101.939468,28.504219,26.6583,43.206,127.206,100.71,-18.7156,-39.9083,3.211,44.1956,-20.2336,-78.369,-57.1898,99.1049,104.477,255.757,132.591,-6.949,251.022,26.29,100559.96,-138.894
505.067,0.514893,0.612549,-0.841553,90.229004,-53.740459,12.519084,0.544313,0.619362,-0.785057,88.764404,-52.914967,11.955714,43.215,137.065,92.421,-16.1468,-41.2844,1.5596,44.3571,-17.5284,-79.6497,-58.9374,100.6227,102.411,263.996,143.726,-5.69,246.9,26.29,100559.67,-138.867
505.177,-0.056152,0.463867,-1.241211,66.091606,74.198471,4.122138,-0.031696,0.495462,-1.179343,64.624603,75.020874,3.560143,43.174,144.435,98.688,-12.9358,-42.4771,-2.7523,44.4883,-14.1003,-80.9113,-63.3013,103.6943,99.886,273.63,151.567,-12.214,252.563,26.28,100559.42,-138.846
505.287,0.347656,0.398682,-0.758301,96.381676,36.488548,80.885498,0.371175,0.408363,-0.703958,94.915359,37.311836,80.323112,43.186,154.775,100.246,-12.4771,-42.844,-1.2844,44.6423,-13.6501,-81.1469,-61.8873,102.962,99.549,283.247,163.764,-20.849,246.465,26.27,100559.23,-138.83
505.397,0.546631,0.046631,-0.943115,151.114502,-38.580154,86.198471,0.559898,0.054542,-0.891207,149.648529,-37.756428,85.635887,43.192,171.341,93.53,-6.789,-44.6789,-3.6697,45.3405,-7.6673,-82.836,-64.4379,105.2275,95.288,299.399,-174.88,-19.361,236.491,26.27,100558.61,-138.778
505.517,0.272217,0.072266,-0.44873,177.297714,-42.213741,77.893127,0.287073,0.077281,-0.400407,175.83226,-41.389355,77.330246,43.201,191.975,86.089,2.6606,-44.6789,-10.8257,46.0486,2.3677,-83.1234,-71.6404,109.7609,88.368,322.718,-152.666,-15.085,229.543,26.26,100558.79,-138.793
505.627,0.280518,-0.450928,-0.724854,107.832062,-19.267176,49.450382,0.280111,-0.440362,-0.678785,106.367462,-18.441685,48.887012,43.215,196.661,81.997,12.1101,-43.0275,-14.1284,46.8789,12.3553,-81.7278,-74.9608,111.585,81.403,329.397,-139.227,-11.463,226.05,26.26,100558.93,-138.804
505.747,0.181396,-0.463623,-0.43335,150.702286,15.389313,53.374046,0.181148,-0.456552,-0.389959,149.235977,16.212599,52.811661,43.186,207.668,81.928,17.9817,-41.9266,-13.578,47.5977,18.516,-80.6459,-74.4612,111.3152,77.069,340.657,-119.283,-8.764,220.166,26.25,100558.64,-138.783
505.867,0.229004,-0.946289,-0.205078,246.580154,10.076336,24.793894,0.215547,-0.945671,-0.168956,245.114532,10.900503,24.231113,43.198,230.338,81.318,26.055,-40.367,-7.4312,48.6167,26.8917,-78.8102,-68.473,107.809,71.159,1.288,-90.178,-8.528,217.517,26.24,100558.55,-138.772
505.977,0.105469,-0.763184,0.330322,195.618317,-4.992366,47.954197,0.098131,-0.770572,0.363255,194.151489,-4.169741,47.392105,43.177,245.366,79.111,29.3578,-39.1743,6.2385,49.35,30.1271,-76.9315,-55.0256,99.2669,68.614,10.496,-71.098,-6.485,217.412,26.23,100558.94,-138.804
506.087,0.035889,-0.716064,0.624268,207.801529,-6.473282,37.954197,0.030404,-0.727818,0.65494,206.335724,-5.649335,37.391514,43.195,261.74,76.884,27.9817,-38.2569,14.4037,49.5381,28.5509,-75.6705,-46.9221,93.5033,69.328,22.473,-51.202,-5.759,217.583,26.23,100559.19,-138.83
506.197,-0.025879,-0.492432,0.877441,235.633591,-8.717557,32.137405,-0.024602,-0.507828,0.907951,234.166931,-7.894711,31.575214,43.18,281.165,74.522,25.5046,-38.2569,17.9817,49.3702,25.8901,-75.4981,-43.3608,90.8318,71.072,39.154,-27.199,-5.158,217.442,26.22,100559.64,-138.867
506.307,-0.11084,-0.134521,0.86084,248.702286,21.938931,37.312977,-0.099498,-0.147025,0.895391,247.236145,22.762436,36.750492,43.189,302.006,75.611,16.422,-37.9817,25.7798,48.7533,16.232,-74.9255,-35.5178,84.4916,77.776,55.864,0.524,-0.025,216.868,26.21,100560.55,-138.941
506.417,-0.203369,0.30542,1.182617,133.633591,49.603054,48.366413,-0.17904,0.288738,1.218538,132.166763,50.425678,47.804321,43.177,310.48,79.697,8.7156,-35.7798,29.2661,47.0389,8.1181,-72.8743,-31.8282,79.935,83.644,63.499,20.185,7.994,219.734,26.2,100560.84,-138.968
506.527,-0.302246,0.190186,1.258789,32.412212,30.687023,13.343512,-0.281041,0.174621,1.293267,30.943157,31.506788,12.782694,43.139,307.76,81.743,0.4587,-33.3027,33.1193,46.9699,-0.5761,-70.5653,-27.7523,75.8286,90.468,59.545,27.791,13.197,220.121,26.19,100560.92,-138.973
506.637,-0.314697,-0.090088,1.534912,-119.465652,1.206107,-5.389313,-0.300907,-0.111366,1.56387,-120.933334,2.027632,-5.950914,43.162,288.487,80.544,5.1376,-30.6422,35.2294,46.9728,4.3263,-68.0278,-25.6093,72.8171,86.361,39.144,16.206,15.261,217.385,26.18,100561.8,-139.047
506.747,-0.269287,-0.5271,1.480957,-355.419861,-49.526718,-26.549618,-0.267925,-0.548652,1.506021,-356.88736,-48.704975,-27.111317,43.165,243.847,73.873,11.1927,-30.5505,34.4037,47.3521,10.6909,-67.9162,-26.5233,73.6912,81.054,355.186,-21.11,11.072,211.571,26.17,100562.12,-139.073
506.867,-0.11084,-0.812744,1.016602,-360.412201,0.061069,-84.473282,-0.118361,-0.828851,1.042961,-361.880737,0.881493,-85.034393,43.148,195.641,72.6,29.1743,-34.0367,20.1835,49.1631,29.7527,-71.5864,-41.0207,87.7071,67.431,318.321,-63.4,4.137,200.408,26.17,100562.83,-139.132
506.977,-0.047119,-0.92627,0.375977,-347.938934,0.122137,-103.068703,-0.05899,-0.930375,0.407569,-349.40799,0.941902,-103.629524,43.139,152.736,71.316,30.8257,-39.5413,-0.367,50.1385,31.7788,-77.6147,-61.5662,104.04,67.734,286.256,-102.8,-10.389,196.22,26.16,100563.25,-139.169
507.097,0.173828,-0.376709,-0.450928,-344.839691,3.099237,-10.656488,0.176,-0.369013,-0.406476,-346.310791,3.916366,-11.216133,43.104,106.2,69.995,18.8991,-42.6605,-13.3945,48.5439,19.4653,-81.274,-74.339,111.851,76.531,243.358,-149.663,-15.082,197.961,26.15,100562.86,-139.137
507.217,0.331055,-0.49707,-1.001465,-265.984741,8.0,-86.366409,0.328853,-0.481974,-0.953216,-267.456177,8.81669,-86.925858,43.098,69.559,69.29,2.9358,-43.578,-15.0459,46.1956,2.7453,-82.3851,-75.7312,111.9377,88.091,203.73,176.701,-19.313,208.541,26.14,100561.75,-139.042
507.327,0.25708,0.21167,-0.805908,-239.572525,31.51145,-96.244278,0.275228,0.224884,-0.752463,-241.042267,32.330334,-96.804703,43.127,45.451,71.003,-3.7615,-43.211,-12.9358,45.2623,-4.3096,-82.0252,-73.517,110.2336,93.008,177.203,146.558,-20.307,223.365,26.13,100561.37,-139.01
507.447,0.132324,0.794434,-0.592285,-123.832062,41.923664,-72.687019,0.167293,0.806771,-0.534813,-125.301971,42.742329,-73.247345,43.124,32.277,74.413,-15.0459,-41.5596,-2.2018,44.2541,-16.3108,-80.094,-62.6703,102.9984,101.511,160.481,125.907,-16.144,238.276,26.11,100560.83,-138.968
507.567,-0.131104,0.931396,-0.213135,-84.580154,61.099236,-72.030533,-0.09161,0.943056,-0.157026,-86.051094,61.916584,-72.590279,43.106,23.501,80.316,-21.9266,-36.9725,4.9541,43.2699,-23.5938,-75.7094,-55.2518,96.6506,107.309,150.471,110.159,-8.44,251.738,26.1,100560.48,-138.936
507.687,0.070801,1.02124,-0.668213,-78.931297,44.671757,-9.221375,0.112029,1.037043,-0.607466,-80.402573,45.488667,-9.780922,43.101,15.983,83.953,-23.945,-33.1193,13.578,43.0652,-25.8139,-71.8292,-46.5185,89.3855,109.767,139.929,100.887,-8.211,257.399,26.09,100560.69,-138.952
507.797,0.139893,0.957764,-0.13208,-106.458015,-15.770992,40.198475,0.180299,0.959995,-0.077825,-107.928436,-14.952986,39.638439,43.115,5.921,80.45,-22.6606,-34.1284,14.7706,43.5479,-24.5013,-72.639,-45.4264,89.1083,108.639,129.66,88.772,-12.766,255.402,26.09,100560.94,-138.973
507.917,0.101562,1.179932,0.141846,-98.931297,-47.374046,-86.610687,0.148729,1.177406,0.195599,-100.401718,-46.556038,-87.170723,43.115,-4.393,73.223,-16.422,-37.0642,18.9908,44.7671,-18.0727,-74.9197,-41.556,87.5585,103.562,116.83,76.637,-1.846,248.972,26.08,100560.66,-138.952
508.027,0.052246,0.943604,0.296143,-31.160305,14.778625,83.587784,0.093015,0.939059,0.346237,-32.632095,15.594877,83.028526,43.092,-6.428,73.334,-13.211,-37.6147,21.7431,45.411,-14.7619,-75.2094,-38.9388,85.9686,101.105,112.792,71.965,-10.785,253.069,26.07,100560.8,-138.962
508.137,0.146484,0.668457,0.562744,-159.511444,25.969465,-30.732824,0.179975,0.655381,0.606967,-160.982727,26.786375,-31.292372,43.101,-22.709,74.527,-8.4404,-38.3486,24.0367,46.0393,-9.8099,-75.6679,-36.8107,84.7165,97.387,94.892,51.795,-5.804,254.507,26.07,100560.8,-138.962
508.247,0.04834,0.947021,0.592041,-120.748093,44.763359,-96.229004,0.089737,0.936192,0.639123,-122.219368,45.580269,-96.788551,43.101,-34.317,77.859,-3.6697,-34.6789,30.1835,46.1209,-4.8702,-72.0048,-30.6435,78.4056,93.869,79.721,41.896,6.05,250.437,26.06,100560.78,-138.962
508.357,-0.210938,0.732422,0.969482,-99.648857,53.251907,-43.389313,-0.174941,0.720711,1.011788,-101.120987,54.067719,-43.948372,43.086,-43.822,82.291,-0.4587,-29.633,34.9541,45.827,-1.5237,-67.2209,-25.7229,71.9905,91.298,67.454,35.068,14.125,250.006,26.06,100561.34,-139.01
508.467,-0.41748,0.421143,1.376709,-91.419846,-25.022902,-20.717558,-0.389555,0.406378,1.412746,-92.892319,-24.207527,-21.276423,43.08,-52.638,78.332,2.7523,-28.0734,36.3303,45.9954,1.8386,-65.7194,-24.3382,70.1054,88.398,57.962,27.868,13.352,246.102,26.06,100561.76,-139.042
508.577,0.003906,0.379395,0.956787,-14.519084,-83.557251,51.893131,0.029935,0.361742,0.994793,-15.992582,-82.743195,51.33485,43.062,-52.91,67.813,10.0,-28.4404,35.5046,46.5771,9.4478,-65.999,-25.2996,71.3106,81.853,57.517,31.404,2.133,246.453,26.06,100561.83,-139.052
508.687,0.0354,0.155029,0.589844,-90.366409,2.122137,28.946566,0.054439,0.144338,0.629325,-91.83905,2.937292,28.387798,43.077,-61.493,66.677,15.4128,-32.6605,30.9174,47.5411,15.1507,-69.9307,-30.1458,77.6442,77.776,50.575,25.061,2.22,249.14,26.05,100562.27,-139.089
508.797,0.218506,-0.054199,0.959473,-72.32061,-13.541985,65.664124,0.23232,-0.078147,0.992239,-73.793594,-12.727268,65.105553,43.071,-68.308,63.709,19.9083,-32.3853,29.0826,47.8638,19.9003,-69.7341,-32.0137,79.27,74.073,44.601,19.843,-1.28,255.232,26.05,100562.34,-139.095
508.907,-0.385498,0.209717,0.729248,-55.35878,-24.687023,69.374046,-0.364701,0.207967,0.769789,-56.83279,-23.873621,68.816055,43.054,-72.767,60.353,27.3394,-29.0826,26.6055,47.9697,27.7781,-66.854,-34.3924,80.1494,67.437,41.091,18.761,-1.156,262.2,26.05,100562.23,-139.084
509.017,0.148926,-0.277344,1.068848,-79.67939,-21.877863,41.29771,0.156632,-0.30176,1.098643,-81.153397,-21.064461,40.739723,43.054,-80.366,56.719,33.0275,-28.8073,20.367,48.3269,33.8564,-66.8933,-40.6105,85.2653,63.155,36.983,11.889,-3.013,267.248,26.05,100562.73,-139.126
509.127,0.220703,-0.346436,1.187744,-110.595421,-22.458015,60.870228,0.22668,-0.375482,1.215301,-112.069603,-21.644833,60.312336,43.051,-91.184,53.049,35.9633,-27.7064,16.8807,48.4352,37.0105,-66.0792,-44.027,87.6049,60.747,29.376,1.683,-4.864,275.378,26.05,100562.48,-139.105
509.237,0.094727,-0.401855,1.04834,-186.488556,-36.335876,77.816795,0.098877,-0.424335,1.077393,-187.963928,-35.524223,77.259583,43.03,-110.053,48.061,41.7431,-23.1193,7.8899,48.3657,43.289,-62.4537,-52.7065,92.4791,55.273,18.089,-16.977,-5.694,286.721,26.04,100561.95,-139.058
509.347,0.209717,-0.644775,0.96875,-222.7939,-44.32061,51.923664,0.206878,-0.66888,0.995732,-224.269272,-43.508957,51.366455,43.03,-132.706,42.213,43.4862,-16.6055,-10.9174,47.812,45.534,-57.7328,-70.8545,102.1116,51.737,7.778,-39.394,-6.346,297.267,26.04,100562.02,-139.068
509.467,-0.079346,-0.796631,0.309326,-270.198486,-63.34351,49.389313,-0.087681,-0.798336,0.343018,-271.675568,-62.534042,48.833073,43.001,-163.334,34.131,38.4404,-13.6697,-22.5688,46.6248,40.4878,-55.8606,-82.0513,107.2012,54.065,340.904,-72.23,-3.141,310.801,26.03,100561.86,-139.052
509.587,0.08667,-0.604248,-0.376953,-249.664124,-44.534351,32.763359,0.082545,-0.595759,-0.335066,-251.140518,-43.72401,32.20673,43.012,-191.99,28.168,19.1743,-8.6239,-36.6055,42.2136,20.6012,-52.4367,-95.2201,110.6385,68.551,308.723,-108.258,2.24,320.728,26.02,100561.02,-138.984
509.707,-0.14209,-0.150391,-0.985107,-266.106873,-50.015266,33.053436,-0.134518,-0.122109,-0.931448,-267.583954,-49.205799,32.497196,43.001,-223.069,21.981,-6.2385,-5.7798,-36.055,37.0445,-6.0177,-50.2102,-94.0653,106.7969,96.834,274.142,-149.888,12.366,323.243,26.01,100560.67,-138.952
509.827,-0.164551,0.09375,-0.959473,-221.679382,-77.816795,14.687023,-0.150044,0.1222,-0.903605,-223.157486,-77.008636,14.131365,42.983,-241.404,12.673,-25.0459,-2.7523,-23.578,34.5079,-25.9201,-47.0565,-81.293,97.4408,118.847,254.627,179.682,21.706,322.903,26.0,100559.66,-138.867
509.947,-0.391846,0.557129,-0.472412,-218.778625,-83.297707,12.137404,-0.363404,0.581657,-0.416028,-220.257065,-82.489983,11.58194,42.977,-259.967,3.257,-34.6789,-1.5596,-4.8624,35.0528,-36.3376,-45.0553,-62.6555,85.3002,128.887,241.234,146.627,34.043,313.561,25.99,100558.77,-138.793
510.067,-0.598389,1.065674,-0.501221,-101.648857,30.091602,26.977098,-0.555663,1.09686,-0.438637,-103.12645,30.900414,26.42115,42.992,-264.66,7.329,-35.4128,-4.3119,10.9174,37.3075,-37.4226,-46.6033,-47.2871,76.2128,128.765,230.442,130.843,30.643,306.47,25.98,100558.58,-138.778
510.187,-0.49585,1.102539,-0.293701,-105.389313,23.251909,-10.763359,-0.451702,1.126344,-0.233389,-106.866562,24.061157,-11.319502,42.998,-269.9,10.441,-33.8532,-3.8532,16.6055,37.9029,-35.8825,-45.8525,-41.697,71.6145,128.045,223.787,116.44,29.858,302.264,25.98,100557.98,-138.725
510.307,-0.380615,1.163086,-0.18457,-126.32061,-17.877863,6.671756,-0.334553,1.181285,-0.125341,-127.799217,-17.07036,6.116388,42.974,-277.61,8.539,-29.2661,-1.0092,25.7798,39.0143,-31.1994,-42.7506,-32.5974,62.158,126.122,215.193,97.907,26.606,292.731,25.97,100557.8,-138.709
510.427,-0.642822,1.063965,-0.040039,-72.106873,-13.862596,5.816794,-0.59932,1.086441,0.017961,-73.585144,-13.054656,5.261232,42.98,-278.93,7.411,-21.6514,-0.1835,33.6697,40.0308,-23.345,-41.4717,-24.9294,53.7249,119.376,212.156,88.508,22.864,285.907,25.97,100557.44,-138.682
510.537,-0.386475,0.781982,0.255371,-130.916031,-16.793894,42.183205,-0.350378,0.790704,0.306375,-132.394135,-15.985737,41.627548,42.983,-286.247,5.989,-14.2202,-1.2844,38.3486,40.9204,-15.6505,-42.0853,-20.5246,49.3697,110.399,201.263,73.456,14.312,281.9,25.96,100557.11,-138.651
510.657,-0.502686,0.853027,0.585205,-84.458015,24.442749,-9.633588,-0.464001,0.85794,0.634028,-85.936119,25.250906,-10.189246,42.983,-289.558,9.309,-10.7339,-4.8624,40.0,41.6996,-12.0703,-45.1167,-19.1672,50.4836,104.978,188.486,63.859,14.194,282.955,25.96,100557.09,-138.651
510.767,-1.462158,0.885498,0.712891,-63.572517,9.053435,50.274811,-1.42241,0.914871,0.765202,-65.050957,9.861156,49.719345,42.977,-289.777,11.186,-5.4128,-4.3119,41.5596,42.1319,-6.5118,-44.472,-17.6971,48.3048,98.33,185.85,59.201,10.937,286.143,25.95,100557.49,-138.688
510.877,-0.157227,0.838135,0.51123,-32.519085,33.832062,54.366413,-0.119065,0.834844,0.559056,-33.998207,34.638912,53.811337,42.965,-286.523,14.831,1.1009,-5.6881,42.3853,42.7795,0.2857,-45.561,-17.0796,48.658,89.641,195.71,58.668,5.847,292.757,25.95,100557.8,-138.709
510.987,-0.244873,0.8479,0.69458,-184.931305,-39.938931,69.267174,-0.206114,0.843135,0.741012,-186.41008,-39.131645,68.711906,42.971,-299.915,10.524,4.1284,-5.1376,42.3853,42.8947,3.4671,-45.0346,-17.102,48.2971,85.598,124.657,39.495,-2.627,294.604,25.95,100557.91,-138.719
511.097,-0.1604,0.400879,0.548828,-152.366409,-56.091602,18.900763,-0.134513,0.396713,0.592037,-153.846039,-55.285408,18.345974,42.956,-309.824,4.568,19.2661,-8.0734,38.8073,44.0723,19.3649,-47.6464,-21.0557,55.5744,67.882,43.123,26.971,-6.404,294.406,25.94,100557.98,-138.725
511.207,0.012695,0.012939,0.61499,-112.335876,-49.328243,-60.900764,0.027767,0.002299,0.652939,-113.814659,-48.520958,-61.456036,42.971,-315.893,-0.803,30.8257,-14.3119,30.7339,45.8217,31.5489,-53.4867,-29.5534,68.7718,59.466,28.859,17.629,-7.17,288.946,25.94,100558.05,-138.73
511.317,0.100586,-0.024902,0.805908,-76.702293,1.465649,-27.709923,0.114941,-0.042176,0.841101,-78.181587,2.27228,-28.264904,42.962,-318.06,-0.697,32.5688,-17.5229,27.9817,46.3762,33.3844,-56.4664,-32.4731,73.1948,59.407,30.739,12.348,-5.074,289.123,25.94,100557.95,-138.725
511.427,0.208252,0.0,0.92627,-70.32061,-83.847328,-25.572519,0.223535,-0.02292,0.959953,-71.800751,-83.041786,-26.127018,42.948,-319.467,-9.897,36.6972,-18.4404,23.211,47.1751,37.7861,-57.4987,-37.2886,78.258,56.689,21.862,8.543,-13.325,287.936,25.94,100558.78,-138.793
511.537,0.471436,-0.299072,0.753418,-78.122139,-20.793894,0.320611,0.47799,-0.325824,0.784757,-79.601768,-19.9877,-0.234177,42.956,-322.109,-12.441,38.5321,-22.2936,17.8899,47.9768,39.7552,-61.1928,-42.7718,84.5841,56.989,22.118,1.431,-16.201,291.615,25.94,100558.69,-138.783
511.647,-0.030518,-0.217041,1.148682,5.114504,130.56488,14.748092,-0.020981,-0.238073,1.179076,3.634363,131.370422,14.193594,42.948,-315.504,1.99,38.5321,-22.3853,17.9817,48.0538,39.7524,-61.2688,-42.6869,84.5949,57.024,20.343,4.471,0.335,297.924,25.94,100559.19,-138.83
511.757,-0.05127,-0.03125,1.433594,2.717557,38.396946,-29.893129,-0.035979,-0.057788,1.462937,1.238266,39.203575,-30.448111,42.962,-309.105,6.204,39.0826,-18.3486,20.0917,47.6214,40.3437,-57.5648,-40.3921,81.073,54.976,8.679,8.811,5.334,299.068,25.94,100560.03,-138.899
511.867,-0.1875,-0.592529,0.775879,9.572519,25.267176,-34.748093,-0.189245,-0.601182,0.807226,8.092718,26.073153,-35.302784,42.954,-302.784,9.104,39.3578,-16.8807,20.4587,47.4611,40.6445,-56.2397,-39.9525,80.0693,54.144,353.876,10.205,9.835,299.123,25.94,100561.03,-138.984
511.977,0.375977,-0.509277,1.091797,-105.068703,-113.633591,-44.610687,0.377198,-0.54071,1.11804,-106.548508,-112.827614,-45.165379,42.954,-308.731,-3.58,39.7248,-18.3486,19.1743,47.7743,41.0333,-57.6089,-41.3054,81.9064,54.539,4.815,-0.279,-4.145,296.47,25.93,100561.27,-139.005
512.097,0.275391,-0.54834,0.934082,-204.0,-66.885498,-46.610687,0.275217,-0.573524,0.962051,-205.480484,-66.080391,-47.164993,42.942,-327.337,-11.555,42.1101,-24.4954,4.1284,48.891,43.723,-63.8829,-56.4892,95.8319,55.611,21.455,-22.402,-12.794,296.654,25.93,100561.27,-139.005
512.217,0.479248,-0.832031,0.393555,-126.839691,-61.496181,-30.793894,0.470113,-0.851411,0.423413,-128.320343,-60.691292,-31.348103,42.939,-337.151,-18.987,38.6239,-27.7064,-11.2844,48.8547,40.3004,-67.6516,-71.762,106.5395,59.218,26.828,-39.085,-22.004,302.756,25.92,100561.08,-138.989
512.337,0.322266,-0.655518,0.143066,-7.557252,-43.129772,4.137404,0.317649,-0.664969,0.177967,-9.037733,-42.324665,3.5831,42.942,-332.971,-24.08,35.3211,-26.6972,-18.8073,48.1045,36.984,-67.2288,-79.0412,110.1592,61.184,17.731,-45.614,-25.918,313.884,25.92,100561.32,-139.005
512.447,0.571533,-1.068115,0.644775,18.687023,-17.29771,9.099236,0.556195,-1.095626,0.66931,17.207222,-16.491734,8.544545,42.954,-325.629,-25.845,35.0459,-26.5138,-19.4495,48.057,36.7091,-67.1064,-79.6572,110.4359,61.32,7.587,-47.077,-26.017,322.683,25.92,100561.22,-138.999
512.557,0.440186,-1.062012,0.956055,-48.534351,11.40458,29.282442,0.425568,-1.092524,0.97804,-50.015171,12.20925,28.728331,42.936,-325.471,-24.336,36.6972,-24.9541,-18.4404,48.0567,38.4426,-65.6458,-78.6055,109.3894,59.646,7.048,-53.953,-20.993,330.005,25.92,100560.96,-138.978
512.667,0.383789,-1.072754,0.514404,-176.7939,-32.900764,42.244274,0.368069,-1.092123,0.541124,-178.275909,-32.097618,41.690838,42.915,-339.453,-27.645,32.4771,-22.2936,-25.5046,46.9281,34.1772,-63.7453,-85.3233,111.8553,61.802,20.94,-76.918,-16.232,341.626,25.91,100560.7,-138.952
512.787,0.259277,-0.711182,-0.068115,-273.236633,-65.908394,36.137405,0.252705,-0.714301,-0.031273,-274.718994,-65.105682,35.58416,42.909,-366.821,-35.138,13.578,-17.156,-36.6055,42.6457,14.6243,-60.068,-95.6073,113.8543,76.317,48.646,-114.379,-7.909,354.579,25.91,100560.04,-138.899
512.907,0.033203,-0.064941,-0.406006,-371.129761,-99.083969,-19.083969,0.044243,-0.05412,-0.358336,-372.612457,-98.281693,-19.63702,42.904,-406.731,-46.132,-2.3853,-14.1284,-36.6055,39.3099,-2.0745,-57.5895,-95.1511,111.2411,92.063,81.967,-164.865,3.143,4.473,25.9,100559.02,-138.814
513.027,0.03833,0.456543,-0.494141,-372.71756,-74.39695,-9.068703,0.063931,0.469306,-0.440523,-374.201782,-73.596626,-9.620889,42.877,-439.941,-53.978,-31.3761,-8.4404,-14.7706,35.6914,-32.7866,-51.6748,-72.847,95.1416,122.394,121.838,148.752,14.014,2.094,25.9,100558.41,-138.762
513.147,-0.30542,1.146729,-0.309082,-144.687027,-26.030535,58.091602,-0.260036,1.165481,-0.249074,-146.171066,-25.229996,57.539322,42.88,-446.29,-55.62,-35.1376,-9.7248,12.1101,38.4171,-37.2244,-51.3277,-46.4283,78.5861,125.951,140.769,126.361,13.262,348.153,25.9,100557.23,-138.661
513.267,-0.497559,1.999939,-0.326172,23.908398,-40.38168,44.900764,-0.428141,2.024808,-0.256809,22.423164,-39.582657,44.349155,42.859,-432.783,-58.925,-31.8349,-16.055,18.4404,40.1406,-33.9548,-56.5333,-40.625,77.4553,120.99,133.917,123.723,9.805,333.926,25.89,100557.06,-138.651
513.387,-0.113037,1.078369,-0.543945,203.725189,51.374046,-46.290077,-0.069989,1.096719,-0.48307,202.240799,52.174152,-46.842167,42.874,-398.067,-51.544,-34.9541,-13.3028,10.0917,38.7375,-37.0419,-54.6107,-48.6198,81.9653,124.149,104.91,147.407,8.635,335.127,25.89,100556.7,-138.619
513.507,-0.135254,0.474609,-0.687256,343.190826,126.580154,59.236641,-0.109506,0.496477,-0.63065,341.706451,127.380257,58.684551,42.874,-347.086,-35.378,-35.3211,-12.2936,-0.1835,37.3998,-37.2312,-54.3073,-58.6568,88.182,124.433,76.213,-172.555,-2.67,327.157,25.88,100557.28,-138.667
513.627,0.114746,-0.208252,-0.266357,349.57251,67.984734,24.244274,0.121999,-0.202812,-0.221906,348.086609,68.78289,23.693048,42.848,-301.962,-27.024,-22.2018,-19.8165,-23.4862,37.9107,-23.1579,-62.1344,-82.2267,105.6323,110.441,302.068,-127.938,-5.667,319.75,25.88,100557.25,-138.667
513.747,0.255859,-0.422119,-0.105225,365.007629,-6.183206,50.38168,0.257378,-0.424239,-0.065178,363.520874,-5.386136,49.830933,42.833,-255.146,-27.736,1.2844,-22.2018,-34.7706,41.2743,1.6374,-64.5913,-93.873,113.9599,88.548,280.2,-86.515,-1.104,318.728,25.87,100556.83,-138.63
513.857,-0.004639,-0.382324,0.405273,382.809174,9.206107,81.755722,-0.001101,-0.388078,0.441641,381.322571,10.003394,81.20488,42.836,-209.763,-26.1,31.0092,-18.5321,-28.1651,45.807,32.7335,-60.5831,-87.6981,111.5022,61.617,275.428,-45.824,6.646,325.416,25.87,100556.8,-138.63
513.967,-0.071045,-0.375,1.042969,346.916016,52.564884,23.29771,-0.06616,-0.392653,1.073115,345.430267,53.363255,22.746389,42.851,-168.734,-19.76,42.5688,-15.4128,-13.945,47.3722,44.6411,-56.8604,-73.7464,103.2689,51.865,288.459,-5.336,9.929,330.727,25.86,100556.95,-138.64
514.077,-0.360596,-0.015869,1.253662,286.900757,-4.21374,-0.916031,-0.345221,-0.02974,1.286467,285.414337,-3.416237,-1.466969,42.839,-134.616,-19.433,42.4771,-12.3853,16.055,47.0687,44.0507,-52.468,-44.0805,81.4644,49.984,343.78,29.214,7.835,334.971,25.85,100556.36,-138.587
514.187,-0.363037,0.167236,0.867188,152.29007,28.061069,-1.312977,-0.343189,0.161853,0.905783,150.802979,28.857708,-1.863532,42.827,-115.465,-15.524,30.367,-11.6514,32.2018,45.7697,31.0759,-51.0515,-27.9505,65.9787,58.67,12.86,47.745,10.565,339.222,25.85,100557.0,-138.645
514.297,-0.093018,0.201172,0.713135,109.099236,-38.458015,-46.70229,-0.072466,0.191473,0.752389,107.61248,-37.660946,-47.253036,42.833,-101.27,-19.167,23.0275,-12.2936,36.9725,45.2588,23.2875,-51.4422,-23.1669,61.0353,65.644,72.695,57.261,11.032,333.173,25.84,100557.98,-138.725
514.407,-0.096436,0.604736,0.788574,63.770992,-61.34351,-25.404581,-0.064358,0.593645,0.830978,62.28339,-60.547523,-25.954849,42.818,-91.819,-25.238,11.6514,-18.1651,39.7248,45.2082,11.2356,-56.633,-20.5941,61.2997,78.779,127.184,62.471,8.213,325.995,25.84,100557.89,-138.719
514.517,-0.14624,0.728516,0.903564,10.412213,13.053435,-64.015266,-0.110467,0.716394,0.946212,8.925286,13.850289,-64.565918,42.83,-88.278,-23.134,8.4404,-17.7982,40.4587,44.9991,7.8605,-56.307,-19.7947,60.2005,82.053,124.298,61.729,14.166,323.897,25.83,100558.37,-138.756
514.627,-0.189941,0.484131,0.672363,-8.717557,-4.045802,-42.610687,-0.161485,0.478161,0.715239,-10.204823,-3.249381,-43.161148,42.824,-86.937,-22.809,8.4404,-18.1651,40.2752,44.9812,7.8591,-56.6427,-19.996,60.5805,82.101,121.821,58.58,16.232,320.928,25.83,100558.44,-138.767
514.737,-0.331787,0.169678,0.006104,4.977099,-23.984734,-8.80916,-0.313416,0.182023,0.053493,3.489495,-23.188745,-9.359427,42.818,-83.35,-23.677,10.0,-18.8991,39.5413,44.9521,9.498,-57.3149,-20.7871,61.7034,80.591,115.811,61.226,18.259,319.11,25.83,100558.51,-138.772
514.847,-0.112793,0.565918,0.787598,20.931297,-27.068703,-19.145039,-0.081814,0.555298,0.829712,19.443693,-26.272715,-19.695307,42.818,-78.911,-25.942,8.4404,-22.844,38.3486,45.428,7.8335,-60.8982,-22.1568,65.2754,82.67,117.255,61.262,15.194,315.038,25.82,100558.68,-138.783
514.957,-0.260254,0.548828,0.784668,0.80916,2.839695,-6.687023,-0.229775,0.542447,0.827338,-0.678275,3.635899,-7.237386,42.821,-76.741,-24.769,4.8624,-24.0367,38.3486,45.5195,4.0668,-62.0007,-22.1613,65.9678,86.247,118.536,60.324,13.732,314.745,25.82,100558.42,-138.762
515.067,0.010742,1.017822,1.119141,276.015259,-50.442749,26.748091,0.055082,0.99669,1.161627,274.527832,-49.646545,26.197727,42.821,-44.797,-29.667,-1.1009,-25.2294,37.2477,45.0014,-2.1815,-63.1964,-23.2057,67.3576,91.977,104.464,89.127,5.445,309.151,25.82,100558.66,-138.783
515.177,0.060059,1.124023,-0.125732,316.900757,36.946564,81.572517,0.105162,1.12844,-0.069556,315.412811,37.742119,81.022438,42.812,-8.033,-25.112,-16.6055,-30.2752,27.8899,44.3867,-18.3364,-68.3992,-32.4173,77.8816,105.007,95.562,123.395,-7.589,307.84,25.81,100558.56,-138.778
515.287,0.006104,0.921143,-0.356689,272.274811,106.061066,82.351143,0.045061,0.932011,-0.299837,270.78653,106.856186,81.801254,42.806,23.476,-13.143,-23.4862,-29.8165,20.9174,43.3378,-25.4211,-68.4784,-39.1232,82.8622,110.366,102.411,150.729,-22.705,305.263,25.81,100558.2,-138.746
515.407,0.362305,0.482422,-0.446045,194.824432,-6.839694,-26.70229,0.38875,0.484967,-0.394192,193.336655,-6.043923,-27.252462,42.815,48.325,-14.229,-26.055,-32.5688,6.9725,42.2872,-27.902,-71.7452,-52.9431,93.4285,111.251,122.619,170.267,-21.489,303.543,25.8,100557.88,-138.719
515.527,0.309326,0.317139,-0.760986,113.923668,-72.274811,-71.389313,0.330536,0.327937,-0.707227,112.435555,-71.479469,-71.939293,42.809,63.684,-22.81,-27.5229,-29.0826,-5.2294,40.3814,-29.1798,-69.3711,-64.7132,99.2553,112.813,286.998,179.31,-9.621,307.329,25.8,100557.52,-138.688
515.647,-0.359375,0.546143,1.481201,74.442749,-42.458015,-89.496185,-0.327728,0.527515,1.517097,72.95565,-41.661377,-90.046738,42.827,71.373,-27.023,-27.0642,-24.3119,-13.4862,38.7997,-28.4912,-65.6092,-72.5662,101.8929,113.473,285.654,-175.327,-0.774,315.172,25.79,100557.16,-138.656
515.767,0.178223,0.243896,-1.032959,222.763351,94.610687,3.709924,0.196865,0.264266,-0.97648,221.275238,95.406029,3.159943,42.809,99.266,-15.482,-27.5229,-22.7523,-14.0367,38.3694,-28.9425,-64.2646,-73.0102,101.4795,114.245,260.291,-150.413,-8.174,309.521,25.79,100557.0,-138.645
515.877,0.506104,-0.303711,-0.617432,178.183212,-11.465649,6.015267,0.510065,-0.301813,-0.572104,176.695099,-10.67031,5.465287,42.809,113.284,-17.088,-17.0642,-26.9725,-23.3945,39.5728,-17.8642,-68.4039,-82.6359,108.7516,104.636,265.44,-131.905,-6.875,309.151,25.78,100556.48,-138.598
515.997,0.394043,-0.482178,-0.731689,170.106873,-6.854962,13.129771,0.392752,-0.474695,-0.686385,168.618759,-6.059623,12.57979,42.809,127.941,-17.963,-5.5963,-26.3303,-30.5505,40.7177,-5.7048,-68.0965,-89.8376,112.8737,94.789,267.004,-115.784,-5.303,309.37,25.78,100556.45,-138.598
516.117,0.167969,-0.596924,-0.239014,333.007629,108.946564,48.305344,0.164306,-0.59372,-0.198865,331.520538,109.743202,47.754787,42.827,162.2,-4.991,12.7523,-27.3394,-31.6514,43.725,13.5404,-68.8189,-91.3033,115.1333,78.869,274.745,-80.364,-1.664,297.542,25.77,100556.26,-138.582
516.237,-0.188232,-0.230713,0.829834,267.328247,108.870232,25.267176,-0.179668,-0.240385,0.864136,265.839447,109.664703,24.717577,42.798,189.907,8.231,35.4128,-32.1101,-8.5321,48.5585,36.8285,-71.4375,-69.2505,106.091,62.727,309.375,-49.146,6.872,291.118,25.77,100556.7,-138.619
516.347,0.351807,-0.548828,0.843262,113.129768,52.106869,-50.717556,0.351463,-0.574216,0.871808,111.641487,52.901993,-51.267441,42.806,197.476,13.397,35.0459,-34.1284,3.6697,49.0554,36.2012,-72.5345,-57.3641,99.3098,63.477,315.536,-37.696,4.12,287.011,25.77,100556.5,-138.603
516.457,0.378174,0.05127,0.68042,284.763367,29.51145,59.068703,0.394477,0.028863,0.716351,283.274902,30.306356,58.518913,42.804,224.111,15.82,29.1743,-34.5872,18.0734,48.7243,29.7831,-72.1945,-43.1265,89.2131,67.582,336.757,-4.615,5.165,294.338,25.76,100556.14,-138.571
516.567,-0.0979,0.262207,0.700439,87.068703,28.549618,32.580154,-0.075649,0.252943,0.74044,85.580254,29.344524,32.030365,42.804,229.232,18.777,16.6972,-31.5596,31.1009,47.3506,16.5082,-68.9284,-29.9255,76.9362,76.531,330.012,11.442,7.288,301.744,25.76,100556.05,-138.561
516.677,-0.077881,0.669678,1.093994,116.580154,-21.465649,55.557251,-0.04342,0.65148,1.133779,115.091194,-20.671391,55.007748,42.795,237.651,16.211,9.0826,-32.5688,32.6605,47.0099,8.4836,-69.8309,-28.3146,75.829,83.073,335.011,31.458,0.566,309.417,25.75,100556.39,-138.593
516.787,-0.079346,0.80249,0.76416,275.893127,1.312977,18.091602,-0.041729,0.791511,0.808656,274.403656,2.106586,17.542387,42.786,263.368,16.157,2.6606,-34.4954,31.1009,46.5218,1.7532,-71.709,-29.8436,77.691,88.599,43.56,67.107,-2.615,311.646,25.75,100556.3,-138.582
516.897,0.241943,1.130859,0.562988,177.847336,-48.717556,173.038162,0.288494,1.115232,0.611247,176.357697,-47.924164,172.489044,42.783,278.337,10.412,-5.5046,-39.9083,23.211,46.4943,-6.737,-77.0594,-37.7635,86.0791,94.996,82.763,85.885,-23.358,310.701,25.75,100556.7,-138.619
517.007,0.81665,0.956299,-0.107666,133.450378,-59.34351,134.885498,0.857118,0.93881,-0.056849,131.962097,-58.548386,134.335617,42.806,288.865,3.045,-2.1101,-42.7523,19.1743,46.9027,-3.1426,-79.7661,-41.9543,90.1813,92.256,89.868,105.991,-39.198,300.88,25.75,100556.94,-138.64
517.117,0.72168,0.70752,-0.084961,171.770996,31.480917,48.809162,0.755158,0.692146,-0.036348,170.283386,32.276905,48.258896,42.818,303.305,5.515,0.0,-44.4954,15.3211,47.0593,-0.884,-81.5034,-45.8791,93.5333,90.621,87.763,122.46,-46.424,302.965,25.74,100557.17,-138.656
517.227,0.636475,0.462402,-0.325195,98.259544,13.816793,64.351143,0.662596,0.454553,-0.276073,96.771599,14.612349,63.801067,42.812,310.096,5.955,1.8349,-43.8532,16.6055,46.9277,1.0253,-80.8377,-44.6124,92.3366,89.273,87.042,136.761,-53.607,296.937,25.74,100557.08,-138.651
517.337,0.524414,0.130127,-0.568359,134.549622,-52.259541,36.32061,0.54071,0.130596,-0.519417,133.062698,-51.462688,35.769958,42.83,321.556,-0.617,3.211,-44.3119,15.4128,47.0257,2.4835,-81.2946,-45.8355,93.3588,88.25,88.555,162.324,-49.882,282.909,25.74,100556.81,-138.63
517.447,-0.930176,-0.024658,-0.377441,95.67939,30.259542,-3.480916,-0.91803,0.012881,-0.325162,94.192291,31.056179,-4.031471,42.827,328.834,4.153,5.5963,-44.6789,14.4954,47.3037,4.9961,-81.6415,-46.8006,94.237,86.498,86.871,171.568,-47.227,282.709,25.73,100556.16,-138.571
517.557,0.832031,-0.094727,-0.629395,6.335878,-10.473283,38.595421,0.841898,-0.10174,-0.583443,4.84912,-9.676212,38.044674,42.833,319.378,1.929,6.5138,-45.0459,13.4862,47.4704,5.9713,-82.0125,-47.8299,95.1284,85.836,85.992,178.295,-46.532,272.699,25.73,100555.73,-138.534
517.667,1.006348,-0.16333,-0.634521,71.893127,46.717556,60.916031,1.014284,-0.1752,-0.589999,70.40654,47.514843,60.365189,42.836,317.31,5.837,11.7431,-43.945,14.7706,47.825,11.4455,-80.897,-46.5974,94.0566,81.947,81.578,-164.062,-51.286,258.796,25.73,100555.47,-138.513
517.777,0.918701,-0.230469,-0.539307,94.763359,-3.557252,92.442749,0.924906,-0.241935,-0.496011,93.277451,-2.759098,91.891525,42.848,317.94,4.239,14.4037,-42.2936,17.2477,47.8925,14.2122,-79.2585,-44.1154,91.8154,79.834,79.943,-143.553,-46.242,243.673,25.72,100555.44,-138.513
517.887,0.805664,-0.400635,-0.132568,172.320618,14.80916,123.374046,0.807787,-0.417748,-0.094606,170.832169,15.604067,122.824257,42.804,327.942,4.595,15.3211,-41.6514,18.0734,47.9189,15.1677,-78.6307,-43.2833,91.0291,79.082,80.172,-114.705,-37.649,228.213,25.72,100555.67,-138.529
518.007,0.388428,-0.598145,0.152588,88.244278,6.946565,155.129776,0.385453,-0.609658,0.187636,86.756676,7.742553,154.579514,42.818,330.127,4.791,16.6972,-40.2752,20.6422,48.2389,16.5826,-77.2472,-40.704,88.876,77.884,79.108,-99.463,-19.405,219.198,25.72,100555.35,-138.503
518.117,0.134521,-0.813232,0.541016,220.748093,-10.045801,136.458008,0.126153,-0.826017,0.571145,219.258972,-9.25176,135.9086,42.792,346.054,3.555,17.3395,-37.3394,25.3211,48.3327,17.2103,-74.371,-35.9484,84.3773,76.97,78.719,-74.626,-4.676,219.984,25.71,100555.59,-138.524
518.227,-0.051025,-0.192627,0.850098,278.061066,53.282444,124.061066,-0.041338,-0.206615,0.883916,276.57193,54.076485,123.511658,42.792,368.684,9.365,10.8257,-34.3119,31.6514,47.9199,10.3069,-71.4107,-29.437,77.9247,81.787,86.816,-44.519,7.912,219.589,25.71,100556.23,-138.577
518.337,-0.205078,-0.214355,1.086914,150.992371,30.137405,129.70993,-0.195592,-0.229101,1.118792,149.50325,30.931446,129.160522,42.792,377.195,12.706,10.0917,-33.3027,32.844,47.8503,9.5291,-70.4579,-28.194,76.4854,82.298,91.176,-26.455,17.661,225.557,25.7,100556.78,-138.624
518.447,-0.445312,0.247314,1.22876,250.458008,24.87023,130.56488,-0.422561,0.236476,1.264773,248.968033,25.663191,130.015945,42.777,396.703,15.583,2.7523,-31.6514,35.2294,47.4394,1.8124,-68.9524,-25.6245,73.5822,88.494,110.374,7.789,23.459,236.496,25.7,100557.78,-138.709
518.557,-0.690186,0.577881,0.884033,145.145035,29.114504,96.687019,-0.658745,0.581555,0.927971,143.655746,29.908329,96.137711,42.789,404.896,19.115,-5.3211,-29.9083,35.2294,46.518,-6.6303,-67.5112,-25.3817,72.4289,95.609,132.863,35.18,24.484,247.426,25.69,100558.5,-138.767
518.667,-0.047363,0.894531,1.243408,163.114502,12.80916,101.435112,-0.006284,0.872317,1.283684,161.624191,13.601689,100.886375,42.771,414.905,20.204,-7.5229,-33.0275,31.8349,46.4852,-8.9185,-70.4967,-28.8575,76.6947,97.21,153.556,61.06,14.212,255.086,25.68,100558.8,-138.793
518.777,-0.060791,1.048828,0.718262,72.64122,28.427481,38.564884,-0.016303,1.038401,0.765535,71.151756,29.22109,38.015667,42.786,415.349,22.965,-12.2936,-38.8991,22.2936,46.4895,-13.8261,-76.3043,-38.4872,86.5724,100.27,165.63,71.444,8.607,258.927,25.68,100559.05,-138.814
518.887,0.21167,1.287354,-0.080811,186.687027,39.404579,103.267174,0.261477,1.286556,-0.024225,185.199081,40.200134,102.717094,42.812,428.828,26.609,-14.2202,-40.6422,15.8716,45.8902,-15.7544,-78.2397,-44.8656,91.5564,101.385,194.109,94.766,-5.157,263.661,25.67,100559.69,-138.867
518.997,0.169678,0.965576,-0.413818,205.816788,133.251907,111.816795,0.209801,0.973056,-0.35671,204.328003,134.046387,111.267197,42.798,444.48,40.298,-12.0183,-41.2844,16.055,45.8978,-13.4572,-78.7701,-44.761,91.5935,99.695,210.111,116.097,-21.144,274.214,25.67,100559.5,-138.851
519.117,0.378174,0.775879,-0.416992,188.015274,88.229004,100.366409,0.412955,0.777449,-0.362668,186.527328,89.024559,99.81633,42.812,459.827,49.447,-12.0183,-42.0183,12.5688,45.4748,-13.4047,-79.6192,-48.23,94.0481,99.557,224.555,137.364,-37.272,275.696,25.66,100559.17,-138.825
519.227,0.719727,0.389404,-0.72876,207.221375,85.664124,127.908394,0.743069,0.387892,-0.676557,205.733597,86.459892,127.358223,42.815,475.812,56.907,-6.3303,-43.6697,12.7523,45.9319,-7.4651,-80.9993,-48.2448,94.5736,95.266,238.852,169.337,-52.273,263.069,25.66,100558.65,-138.783
519.337,0.643066,0.105469,-0.510254,31.832062,84.610687,100.671753,0.658781,0.101308,-0.462709,30.343781,85.405807,100.121864,42.806,472.92,63.889,-2.844,-44.3119,14.0367,46.5689,-3.8408,-81.4504,-47.0807,94.1569,92.7,234.992,-170.529,-61.819,242.085,25.65,100558.72,-138.788
519.447,0.531982,-0.189209,-0.296143,-28.687023,49.480915,160.549622,0.539755,-0.194951,-0.253153,-30.17412,50.277554,159.999069,42.827,457.361,66.844,6.8807,-42.6605,19.2661,47.3122,6.2839,-79.5647,-42.0185,90.1975,85.484,218.531,-138.637,-58.649,202.288,25.65,100558.19,-138.746
519.567,0.54248,-0.832031,-0.526855,-11.312977,-9.969465,194.580154,0.531696,-0.833308,-0.487762,-12.801427,-9.174559,194.030365,42.804,444.301,63.852,21.7431,-38.3486,20.0917,48.4464,21.9076,-75.5071,-41.2249,88.7736,73.82,208.609,-121.757,-36.924,179.819,25.64,100557.7,-138.704
519.687,0.467529,-1.13623,-0.494385,-65.28244,16.580153,35.603054,0.448211,-1.136189,-0.458228,-66.770042,17.376141,35.052788,42.818,425.323,64.216,31.1009,-32.6605,18.5321,48.7588,31.8197,-70.4366,-42.5999,88.2528,65.689,188.841,-125.476,-32.674,173.975,25.64,100558.08,-138.735
519.807,0.42627,-1.055664,-0.521484,-82.549622,13.435115,-23.572519,0.409173,-1.053839,-0.484072,-84.037224,14.231103,-24.122787,42.818,404.641,64.217,33.578,-31.1927,16.8807,48.8408,34.465,-69.1986,-44.1835,89.0419,63.524,162.33,-133.838,-34.575,173.494,25.63,100558.05,-138.735
519.927,0.328369,-0.606934,-0.426025,-192.854965,45.633587,-145.908401,0.324101,-0.604239,-0.384789,-194.343079,46.428925,-146.458389,42.809,371.244,67.906,34.2202,-33.3945,11.4679,49.1704,35.2063,-71.45,-49.6416,93.8556,63.769,126.553,-164.138,-47.631,187.591,25.63,100558.56,-138.778
